     3.05           OBSERVATION DATA    M                   RINEX VERSION / TYPE
GnssLogger          samsung 16          20260421 140346 UTC PGM / RUN BY / DATE
Google GnssLogger                                           MARKER NAME
Unknown                                                     MARKER NUMBER
Unknown             Unknown                                 OBSERVER / AGENCY
Unknown             GnssLogger          v3.1.1.2            REC # / TYPE / VERS
Unknown             Unknown                                 ANT # / TYPE
        0.0000        0.0000        0.0000                  ANTENNA: DELTA H/E/N
G    8 C1C L1C D1C S1C C5Q L5Q D5Q S5Q                      SYS / # / OBS TYPES
R    4 C1C L1C D1C S1C                                      SYS / # / OBS TYPES
C    8 C1P L1P D1P S1P C5P L5P D5P S5P                      SYS / # / OBS TYPES
E    8 C1C L1C D1C S1C C5Q L5Q D5Q S5Q                      SYS / # / OBS TYPES
  2026    04    21    14    03   46.0000000     GPS         TIME OF FIRST OBS
 9 R01  1 R02 -4 R08  6 R14 -7 R15  0 R16 -1 R17  4 R23  3  GLONASS SLOT / FRQ #
   R24  2                                                   GLONASS SLOT / FRQ #
samsung SM-S921B (Android 16) HW Year: 2021 HW Model:       COMMENT
S.LSI,K43E1,SPOTNAV_4.17.16_27_E_275468                     COMMENT
                                                            END OF HEADER
> 2026 04 21 14 03 46.9999999  0 34                      
G14  23212878.97526    -38703.92826       866.36826        40.60026  23212883.17215     37909.20315       646.40515        31.50015
G02  20552064.71806     14215.13506        91.16506        39.60006                                                                
G01  21309636.06306    -84489.86906      2151.23006        39.10006  21309643.25806      3416.70506      1605.01006        36.70006
G10  23000776.71006    130291.42906     -2791.34706        38.90006  23000805.79005    162854.98005     -2083.80705        35.30005
G22  24231207.10126    -71185.09826      1618.98226        36.30026                                                                
G08  21072182.74806     98308.57006     -2290.32606        35.90006  21072178.85125    140774.03425     -1712.67225        31.00025
G32  22417109.87415     41571.67115      1020.14715        35.00015  22417099.38214     25110.96514       764.51314        27.80014
G17  25517430.66705    -60204.95105      3384.78905        33.90005                                                                
G27  23380929.73625    167368.04425     -3642.56325        35.00025  23380926.73806    189797.41906     -2721.16606        36.20006
G03  23664221.91724   -104965.04124      3789.46024        24.10024                                                                
R17  21260261.44407   4375494.19807      3072.24907        42.10007
E10  24650131.08606     16280.02206      1615.07906        40.50006  24650131.98506     36351.39006      1205.80406        36.70006
C30  24717466.57126    -42996.95226      2928.45126        40.20026  24717471.96705     -9808.67305      2187.54305        31.50005
C36  25860748.19306    111501.23706     -1057.05206        40.40006  25860755.98806    101056.74206      -790.88606        35.80006
C27  21417159.92506     -3871.58606       508.46706        39.10006  21417164.12205     64308.41405       380.73005        32.50005
R15  22263325.93726   2467970.68926     -2188.08826        38.20026
R08  20985511.84906   4301015.32306     -2164.41806        39.00006
E25  25925417.92306    -33945.33006       771.25506        36.10006  25925424.81824     70276.66624       583.12224        29.30024
R24  19402718.89405   2993326.08505      -212.81905        35.30005
E16  25231679.58825     86067.42525     -1783.25525        35.40025  25231682.88625    476297.29225     -1333.03825        32.40025
C41  22987383.48225    -93179.27325      2137.35225        34.60025  22987390.97725     -3846.28825      1586.88925        29.60025
E07  27778045.67625    158666.36225     -1683.82925        34.60025  27778055.56924    480721.08224     -1262.29524        29.40024
E12  23417933.11925     62693.35025       542.92625        34.30025  23417937.01615     40148.63415       407.76415        29.90015
R01  19963763.69105   2491405.07105      2080.58105        34.10005
C28  22429085.68425     90873.13325     -1885.35125        34.50025  22429089.58114    132034.07214     -1391.54614        25.10014
C33  23065459.93126     51044.48526      -973.56626        35.60026  23065482.71524    101683.25224      -727.81124        28.40024
E29  25959292.37215    -18552.95315       840.63615        34.70015  25959307.06215     52685.41915       633.09815        31.70015
E33  24870993.58625     79996.94525     -1848.69725        33.10025  24870990.28814    124494.25914     -1365.96014        26.30014
R16  22849091.62027   -108447.20227      1437.27327        41.80027
C42  26871589.00315    135585.50615     -3210.62815        30.60015  26871594.99814    173718.97714     -2392.37914        26.50014
R23  23144588.05224   3643903.97924     -3428.63624        29.40024
R02  23018609.56524  -6000380.57624      4553.21024        28.40024
R14  24169895.34623  -2031128.56023     -4103.24023        21.30023
E19  25782526.64524     93664.03024      2830.35024        26.50024  25782521.24924    -28190.87624      2113.88224        24.40024
> 2026 04 21 14 03 47.9999984  0 34                      
G14  23212722.48326    -39572.19426       869.03126        40.50026  23212725.781 5     37259.808 5       658.440 5        31.400 5
G02  20552059.32206     14123.60206        91.98306        39.90006                                                                
G01  21309236.73906    -86642.22106      2153.59606        39.40006  21309241.53626      1809.48226      1607.18826        36.00026
G22  24230906.40916    -72805.46916      1621.35916        37.00016                                                                
G08  21072622.24406    100600.73506     -2293.23606        36.00006  21072621.344 5    142487.035 5     -1716.191 5        30.900 5
G32  22416922.20415     40549.64015      1012.03515        34.90015  22416916.80814     24350.65414       753.97214        27.70014
G17  25516791.21015    -63593.57215      3389.43415        34.00015                                                                
G27  23381633.94815    171009.90715     -3639.66215        34.80015  23381628.55206    192521.36806     -2725.16106        36.20006
G03  23663540.18924   -108751.82424      3786.67724        24.00024                                                                
G10  23001318.43506    133084.49906     -2792.87106        39.00006  23001314.23825    164938.04525     -2083.73225        34.70025
R17  21259707.12807   4372421.43607      3074.51107        42.00007
E10  24649830.39426     14664.00826      1617.30126        40.40026  24649833.69226     35145.00426      1207.13326        36.70026
C30  24716926.94426    -45927.08226      2933.19526        40.20026  24716921.84825    -11997.68625      2194.03225        31.30025
C36  25860954.45006    112558.19306     -1054.20506        40.30006  25860965.24306    101845.47406      -787.20806        35.90006
C27  21417074.18506     -4378.03606       506.55406        39.30006  21417075.98325     63930.81625       375.06225        32.20025
R08  20985913.87106   4303181.09506     -2166.43906        38.80006
R15  22263743.54816   2470158.00216     -2182.70516        38.20016
E25  25925283.31626    -34722.76126       776.00426        36.30026  25925288.11324     69700.44924       578.79824        29.00024
R24  19402760.26506   2993539.27706      -213.13006        35.90006
R16  22848796.92426   -109887.22826      1440.67526        41.10026
E16  25232029.44605     87851.29205     -1783.20705        35.30005  25232030.645 5    477630.674 5     -1331.672 5        32.300 5
C41  22986977.56325    -95310.04525      2126.82625        34.60025  22986992.25314     -5436.64414      1590.31714        29.40014
E12  23417837.48505     62150.01405       542.99005        34.20005  23417842.58214     39746.37414       399.02614        29.30014
E07  27778388.63805    160345.63805     -1678.52005        34.50005  27778384.74104    481975.30404     -1254.13404        29.30004
R01  19963385.95215   2489325.12715      2079.72015        34.00015
C28  22429462.52315     92760.96215     -1888.25415        34.30015  22429458.02614    133436.85914     -1400.66514        24.90014
C33  23065649.70025     52020.43325      -978.93825        35.00025  23065677.58024    102410.48024      -714.32824        28.50024
E33  24871350.63915     81845.72015     -1846.13015        32.90015  24871351.83824    125877.10624     -1392.78224        26.50024
E29  25959128.08605    -19387.60305       831.18305        34.20005  25959153.569 5     52059.481 5       639.960 5        31.700 5
C42  26872211.37225    138795.02825     -3210.99825        30.50025  26872219.16614    176120.96214     -2401.32414        26.00014
R23  23145238.60124   3647334.19324     -3430.90924        29.40024
E19  25781979.22424     90840.61024      2828.42424        26.30024  25781995.11314    -30298.89614      2110.24814        24.50014
R02  23017772.24424  -6004933.10424      4550.28224        27.80024
R14  24170712.88023  -2027026.93723     -4104.14223        21.20023
> 2026 04 21 14 03 48.9999968  0 35                      
G02  20552036.83806     14031.07906        92.26806        40.30006                                                                
G14  23212552.50126    -40441.78026       869.74626        40.50026  23212552.80115     36602.90015       680.66515        31.30015
G01  21308822.12606    -88795.37206      2154.30406        39.70006  21308827.222 5       201.641 5      1602.652 5        35.200 5
G10  23001840.67406    135877.10106     -2792.62306        39.30006  23001844.87105    167023.31105     -2085.87005        34.30005
G22  24230593.72626    -74426.73326      1621.21526        37.10026                                                                
G08  21073053.04606    102894.16606     -2296.06706        36.10006  21073055.14425    144200.07025     -1712.05525        31.70025
G17  25516145.45705    -66985.75205      3394.46605        34.60005                                                                
G32  22416716.24715     39528.00015      1025.19715        34.80015  22416722.24314     23590.00114       756.32514        27.50014
G27  23382317.47515    174651.00415     -3634.47115        34.60015  23382319.27416    195242.45416     -2725.66016        35.60016
G03  23662780.81424   -112537.61124      3785.79624        23.80024                                                                
R17  21259121.33307   4369347.47807      3073.06107        41.90007
E10  24649524.90606     13046.89006      1616.17406        40.30006  24649521.908 6     33937.334 6      1208.314 6        36.700 6
C30  24716349.24406    -48858.94306      2933.73206        40.10006  24716359.43705    -14188.66005      2190.95905        31.50005
C36  25861149.61506    113613.21506     -1054.55606        40.20006  25861162.50606    102633.23006      -787.26906        36.70006
C27  21416968.65806     -4884.89606       507.06606        39.50006  21416975.55305     63553.32105       376.44405        32.10005
R08  20986317.39106   4305346.54806     -2164.54806        38.60006
R15  22264158.46026   2472344.36926     -2187.14926        38.00026
E25  25925132.82106    -35500.41506       780.76706        36.30006  25925131.92124     69119.29524       586.62424        28.70024
R24  19402806.13306   2993750.73106      -209.83506        36.10006
R16  22848525.01216   -111328.58416      1444.52416        40.20016
E16  25232361.61625     89636.14925     -1786.85425        35.30025  25232365.51325    478963.06125     -1332.39325        32.30025
C41  22986577.94025    -97441.19125      2134.83725        34.60025  22986584.23514     -7028.52814      1586.65214        29.30014
E12  23417728.96005     61607.14005       543.14505        34.30005  23417732.25814     39338.65314       407.95214        28.90014
R01  19962997.42105   2487249.34305      2072.95605        34.00005
E07  27778695.02615    162025.84915     -1677.18215        34.50015  27778698.92414    483227.80314     -1252.13914        28.90014
C28  22429809.08315     94649.51315     -1888.91615        34.10015  22429815.07924    134848.53624     -1414.12424        25.20024
C33  23065831.67425     52997.93325      -977.27925        34.50025  23065860.15405    103141.40005      -735.26705        29.50005
E29  25958981.18815    -20227.45815       842.95815        33.70015  25958971.29515     51430.74515       634.13515        31.00015
E33  24871701.39625     83694.30725     -1847.49625        32.60025  24871699.29714    127258.32714     -1383.91114        26.90014
C42  26872814.85425    142002.45625     -3205.38725        30.40025  26872825.64714    178517.91814     -2397.44714        25.70014
R23  23145883.75524   3650765.12324     -3432.79324        29.40024
E11  25093853.60324    173540.78124      2391.97924        24.90024                                                                
E19  25781447.69224     88014.24824      2826.83924        26.20024  25781454.88714    -32409.18314      2105.42314        24.50014
R02  23016832.69524  -6009482.80924      4547.55124        27.30024
R14  24171504.63223  -2022927.36523     -4102.05423        21.10023
> 2026 04 21 14 03 49.9999952  0 35                      
G14  23212381.02026    -41312.79826       871.98626        40.50026  23212384.31715     35949.57315       665.03815        31.10015
G02  20552016.15206     13937.45306        93.67906        40.30006                                                                
G01  21308413.80906    -90949.84106      2154.13006        39.80006  21308413.50905     -1407.44605      1611.71305        35.20005
G10  23002375.20406    138665.56306     -2785.64606        39.40006  23002372.20625    169105.43725     -2082.05825        34.10025
G22  24230284.93926    -76049.10426      1622.42626        37.30026                                                                
G08  21073484.74706    105185.01806     -2288.81606        36.10006  21073488.04425    145910.73425     -1700.48125        31.70025
G17  25515488.91105    -70379.55805      3393.87505        35.20005                                                                
G32  22416530.67515     38508.57615      1017.56815        34.70015  22416529.47614     22827.20714       764.36514        27.40014
G27  23383004.00015    178291.29215     -3640.63915        34.40015  23383009.99605    197964.64605     -2723.74905        34.80005
G03  23662047.52224   -116324.93524      3786.34924        23.70024                                                                
R17  21258546.93107   4366271.86107      3076.95107        41.80007
E10  24649211.92226     11428.75226      1619.14926        40.30026  24649211.02306     32728.77906      1209.00006        36.60006
C27  21416873.62426     -5393.25026       506.10226        39.50026  21416873.92325     63173.74225       384.12225        31.90025
C30  24715805.42126    -51790.60526      2934.06726        40.10026  24715798.22625    -16378.95825      2191.46325        32.00025
C36  25861357.07226    114669.91226     -1057.53626        40.10026  25861357.97106    103420.06406      -786.37306        36.70006
R08  20986712.21806   4307510.56306     -2164.29906        38.50006
R16  22848243.807 6   -112772.875 6      1445.011 6        39.600 6
E25  25924976.62926    -36279.58726       779.43226        37.10026  25924983.22424     68540.12924       576.67424        28.60024
R15  22264529.90316   2474529.03016     -2181.56116        37.90016
R24  19402836.71206   2993961.19206      -213.96506        36.10006
E16  25232699.18205     91420.12405     -1784.53805        35.20005  25232703.67915    480295.54915     -1329.54015        31.50015
C41  22986166.92415    -99572.49115      2130.38015        34.60015  22986179.81514     -8618.84814      1579.54014        29.20014
E12  23417627.33105     61061.57105       545.41605        34.30005  23417627.33114     38929.07514       411.50814        28.50014
R01  19962588.20415   2485169.40615      2080.01715        34.00015
C28  22430170.33325     96537.64725     -1887.92725        34.00025  22430172.43114    136257.34314     -1411.87514        25.70014
E29  25958813.00415    -21067.78415       833.06215        33.40015  25958824.99615     50805.24415       616.38515        30.10015
E33  24872049.75515     85535.93915     -1841.65815        32.40015  24872050.05514    128632.60614     -1366.31014        26.90014
C42  26873445.61725    145208.09425     -3207.74925        30.30025  26873433.62614    180915.43814     -2404.80514        25.60014
R23  23146519.61524   3654193.10024     -3425.25724        29.30024
E11  25093400.31724    171148.62224      2394.82624        27.10024  25093396.42013    240001.71913      1789.43313        22.80013
E07  27779028.09605    163703.64705     -1682.09405        34.00005  27779015.50414    484479.66914     -1255.55214        28.40014
E19  25780898.77224     85190.95724      2825.75924        26.10024  25780909.86424    -34518.15624      2106.82024        24.40024
R02  23016006.46724  -6014031.23224      4552.78924        26.90024
R14  24172271.20123  -2018839.12623     -4092.32723        21.10023
C33  23066019.04425     53973.18425      -975.62725        34.20025  23066044.22615    103866.55815      -724.27815        29.50015
> 2026 04 21 14 03 50.9999936  0 35                      
G17  25514842.85807    -73773.25607      3393.89907        42.70007                                                                
G02  20551995.16606     13844.57106        92.00906        40.40006                                                                
G14  23212215.53426    -42180.09826       866.19226        40.40026  23212217.33325     35299.37425       644.63625        33.70025
G10  23002906.13606    141456.60706     -2792.59006        39.40006  23002900.44005    171188.97605     -2079.25005        33.90005
G22  24229970.15726    -77671.06226      1623.50526        37.30026                                                                
G08  21073918.24706    107479.20306     -2295.10506        36.30006  21073920.64525    147623.39125     -1713.65625        31.60025
G32  22416328.91515     37481.17415      1032.39215        34.50015  22416331.61304     22063.39604       763.32104        27.30004
G27  23383706.71315    181933.82415     -3647.16015        34.20015  23383701.31725    200687.43625     -2720.59225        34.20025
G03  23661318.12724   -120111.27224      3783.34924        23.50024                                                                
G01  21307995.29806    -93103.92906      2155.65206        40.00006  21308000.39525     -3016.07225      1603.89725        35.20025
E25  25924826.13306    -37058.37006       778.58906        40.20006  25924829.73024     67958.57324       593.25224        28.80024
R17  21257969.83007   4363196.58707      3075.10807        41.70007
E10  24648904.93506      9809.66506      1619.56506        40.20006  24648901.03726     31521.04926      1198.31926        36.50026
C27  21416769.89506     -5901.06106       510.03906        39.50006  21416773.79305     62795.69905       383.77505        31.70005
C30  24715230.41926    -54725.02226      2936.29926        40.00026  24715236.41405    -18571.03705      2192.47305        32.80005
C36  25861558.83226    115726.46326     -1053.48026        40.00026  25861556.43406    104207.41706      -787.61506        37.20006
R16  22847975.19306   -114215.09806      1441.19106        39.20006
R08  20987121.13506   4309676.03806     -2164.45906        38.40006
R15  22264949.91326   2476714.28626     -2184.80726        37.70026
R24  19402862.49406   2994173.24306      -212.34706        36.10006
C41  22985753.51125   -101701.80925      2125.33125        34.60025  22985768.50014    -10210.55314      1591.90014        29.10014
E12  23417521.80405     60517.39705       545.47905        34.30005  23417520.00524     38520.85324       406.04524        28.20024
R01  19962206.86815   2483093.39015      2072.55915        34.00015
C33  23066206.71425     54947.80925      -973.81325        33.90025  23066229.79814    104593.34914      -722.60914        29.30014
E29  25958641.52315    -21907.19315       841.45315        33.10015  25958665.20714     50180.83514       616.36414        29.40014
E33  24872402.91025     87382.47725     -1843.49525        32.20025  24872397.21414    130004.28514     -1354.88314        26.80014
E11  25092934.14025    168755.00025      2393.62625        29.60025  25092935.33914    238217.11214      1786.08514        24.30014
C42  26874033.51015    148413.45715     -3202.73015        30.20015  26874042.80414    183312.84214     -2412.84914        25.60014
R23  23147182.45624   3657615.49424     -3416.85824        29.30024
E07  27779336.58205    165379.54705     -1674.95305        33.10005  27779329.38704    485730.68604     -1246.09404        28.00004
E16  25233040.04615     93205.24715     -1786.69915        34.70015  25233037.04915    481627.84215     -1328.69815        30.40015
E19  25780391.22324     82362.98924      2828.81224        26.00024  25780372.03614    -36630.93014      2112.67814        24.40014
R02  23015152.65824  -6018589.69824      4560.49424        26.40024
R14  24172991.00323  -2014746.13223     -4090.12923        21.10023
C28  22430528.28525     98427.24325     -1888.83125        33.90025  22430527.985 4    137668.593 4     -1411.474 4        26.000 4
> 2026 04 21 14 03 51.9999920  0 35                      
G17  25514195.00707    -77166.08707      3392.40307        42.70007                                                                
G08  21074353.24506    109774.25406     -2295.73706        37.30006  21074354.14526    149338.05826     -1716.67526        38.90026
G02  20551975.98006     13752.91806        91.28906        40.70006                                                                
G01  21307588.18006    -95256.82506      2151.80306        40.10006  21307589.37905     -4621.73005      1604.17705        34.80005
G14  23212045.25226    -43046.83826       866.21126        40.40026  23212046.151 5     34650.805 5       648.255 5        34.300 5
G10  23003427.47506    144249.11706     -2793.24706        39.40006  23003428.67425    173274.95925     -2088.70725        33.80025
G22  24229660.47226    -79289.53126      1614.72626        37.30026                                                                
G32  22416139.74605     36456.13405      1025.11205        34.50005  22416137.04814     21302.66714       753.68914        27.30014
G27  23384399.53415    185575.05515     -3641.08615        34.00015  23384392.63805    203410.02105     -2719.98705        33.80005
G03  23660601.02323   -123895.34923      3783.95423        23.40023                                                                
E25  25924671.44007    -37836.07307       777.16507        42.20007  25924678.03524     67378.20624       579.27324        28.80024
R17  21257391.53107   4360122.19307      3073.95907        41.80007
C27  21416671.56306     -6407.29806       504.95206        39.70006  21416675.76015     62416.84015       372.26915        31.20015
E10  24648586.25526      8192.95726      1617.02226        40.10026  24648590.15306     30312.41506      1206.08806        36.20006
C30  24714672.80526    -57658.90826      2933.12626        39.80026  24714674.00405    -20762.02905      2190.45205        33.30005
C36  25861745.00326    116782.49726     -1056.77826        39.80026  25861753.99706    104995.64206      -788.66106        37.90006
R16  22847700.58306   -115656.05206      1441.07106        39.10006
R08  20987519.85906   4311842.41806     -2165.83606        38.30006
R15  22265362.42726   2478901.58226     -2190.31926        37.60026
R24  19402911.66006   2994385.85706      -210.39506        36.10006
C41  22985341.89625   -103830.80125      2129.83225        34.70025  22985360.18314    -11800.70714      1589.38214        29.00014
E12  23417413.57905     59974.48605       540.27905        34.30005  23417411.48014     38116.86514       403.87114        27.90014
R01  19961832.42815   2481011.05115      2088.50315        34.00015
C28  22430877.84325    100316.16625     -1892.08825        33.80025  22430883.53914    139073.60114     -1403.38914        26.00014
C33  23066390.48715     55923.65515      -979.45815        33.70015  23066409.07414    105324.14514      -734.29914        29.20014
E11  25092485.650 5    166363.397 5      2390.598 5        31.700 5  25092479.65414    236432.24814      1786.86714        25.00014
E29  25958498.52215    -22743.70115       832.05915        32.90015  25958500.92014     49556.19614       623.25414        28.90014
E33  24872740.77615     89229.81115     -1850.73415        32.00015  24872745.27314    131374.63114     -1349.68114        26.50014
C42  26874650.78325    151619.53425     -3211.43925        30.10025  26874653.78114    185710.52814     -2417.33114        25.50014
E07  27779647.46725    167056.25225     -1673.61025        32.50025  27779646.26814    486982.54014     -1254.77514        27.70014
E16  25233394.40105     94990.46805     -1783.27305        33.80005  25233376.11415    482959.36815     -1328.14415        29.50015
R23  23147798.82924   3661040.95624     -3427.25124        29.30024
E19  25779826.11424     79531.33224      2833.50524        25.90024  25779831.51114    -38738.10314      2112.87714        24.40014
R02  23014289.85524  -6023146.64224      4557.44024        26.00024
R14  24173741.98323  -2010651.70123     -4091.90623        21.10023
> 2026 04 21 14 03 52.9999904  0 35                      
G08  21074784.64707    112069.06707     -2294.69907        44.00007  21074787.64506    151051.26206     -1712.47606        38.90006
G17  25513544.75707    -80559.86107      3393.50107        42.50007                                                                
G02  20551957.39306     13658.81306        93.83006        40.70006                                                                
G14  23211872.27226    -43916.32226       870.85826        40.30026  23211879.46705     34001.38805       649.34105        34.80005
G10  23003951.81206    147038.55906     -2789.41306        39.40006  23003960.80615    175357.30415     -2088.03015        33.70015
G22  24229349.28716    -80909.76916      1623.87616        37.20016                                                                
G32  22415946.97915     35430.94315      1021.01715        34.40015  22415931.69014     20550.51314       740.86814        27.20014
G27  23385095.95215    189220.92715     -3654.44815        33.80015  23385084.85915    206131.40815     -2724.79215        33.10015
G03  23659885.11923   -127682.47923      3784.16223        23.20023  23659863.83412    525266.13412      2813.15512        16.70012
G01  21307173.86706    -97411.17706      2154.33506        40.10006  21307175.06625     -6231.06025      1617.66925        34.20025
E25  25924524.24207    -38614.74407       779.15507        42.60007  25924526.64025     66798.05825       580.53925        30.20025
R17  21256813.23107   4357046.63807      3076.14207        42.20007
C27  21416573.53126     -6915.00026       508.43526        39.70026  21416578.62815     62044.69715       362.78515        30.30015
E10  24648273.57206      6574.47606      1618.86906        40.00006  24648275.97016     29104.11616      1204.13316        35.70016
C30  24714108.59506    -60593.12406      2934.38506        39.70006  24714112.19305    -22953.87205      2192.27205        34.10005
C36  25861947.36326    117837.00126     -1055.24026        39.70026  25861951.26006    105783.23806      -787.28306        38.80006
R16  22847432.56806   -117095.89106      1442.03506        39.00006
R15  22265768.64626   2481087.66126     -2184.97526        37.60026
R08  20987911.68816   4314007.16416     -2162.18316        38.20016
R24  19402935.34406   2994598.34706      -213.92806        36.10006
C41  22984935.97725   -105963.17225      2132.56425        35.00025  22984947.06924    -13391.18124      1591.13624        29.10024
R01  19961427.10815   2478931.28015      2079.99115        34.10015
E12  23417307.15225     59429.41225       545.15825        34.30025  23417310.45014     37719.67714       384.28914        27.40014
C28  22431231.89815    102201.00615     -1884.80315        33.70015  22431240.592 4    140484.665 4     -1401.595 4        26.500 4
C33  23066577.55725     56899.97325      -975.55625        33.50025  23066588.94914    106053.53714      -730.19014        29.20014
E11  25092021.57225    163972.42525      2386.16025        31.70025  25092015.57624    234644.63024      1787.99824        25.60024
E29  25958322.84415    -23584.58815       838.07615        32.70015  25958331.53814     48932.95514       628.54314        28.60014
E33  24873095.73125     91078.49925     -1850.36825        31.90025  24873095.43114    132744.55614     -1355.71714        26.00014
E07  27779971.54205    168734.12405     -1679.45705        32.00005  27779962.24904    488234.43504     -1251.41804        27.80004
C42  26875246.17115    154826.08315     -3206.79015        30.00015  26875278.54814    188126.16714     -2419.12014        25.10014
E16  25233714.28025     96774.39725     -1785.28625        33.10025  25233712.18114    484292.90014     -1328.53714        28.70014
R23  23148454.47524   3664469.45224     -3429.52024        29.30024
E19  25779293.68324     76696.30824      2833.71224        25.70024  25779290.98514    -40851.65314      2108.24114        24.30014
R02  23013440.84324  -6027696.88324      4546.64724        25.70024
R14  24174485.76823  -2006561.75223     -4091.96423        21.10023
> 2026 04 21 14 03 53.9999889  0 35                      
G08  21075245.42807    114362.96007     -2293.43607        44.30007  21075249.92506    152764.28706     -1712.93706        38.80006
G17  25512924.78607    -83954.08107      3396.19707        42.30007                                                                
G02  20551964.28806     13564.85906        96.62906        40.70006                                                                
G14  23211734.96726    -44786.46026       870.46626        40.40026  23211739.76405     33351.82505       649.63705        34.80005
G01  21306787.13506    -99566.07306      2155.42006        40.20006  21306791.03205     -7839.00805      1611.25905        33.80005
G10  23004513.02406    149826.35206     -2784.22306        39.40006  23004516.02225    177441.24225     -2077.73725        33.60025
G22  24229053.69226    -82532.02726      1623.27026        37.20026                                                                
G27  23385818.75115    192859.83415     -3639.93015        33.60015  23385802.86215    208849.08315     -2711.82315        32.50015
G03  23659177.60923   -131466.52723      3787.01223        23.10023  23659172.81213    522443.11113      2826.01813        17.90013
G32  22415767.10415     34408.86115      1022.53015        34.40015  22415765.30514     19790.04914       766.12114        27.60014
R17  21256263.41207   4353970.36607      3076.63407        42.50007
E25  25924397.43007    -39393.81807       779.27707        42.60007  25924405.52425     66218.08125       582.39225        30.20025
C27  21416503.97926     -7423.36726       511.70126        39.70026  21416501.58115     61666.02415       375.43815        29.50015
E10  24647990.26826      4955.29326      1621.03726        40.00026  24647995.66405     27896.87805      1210.21005        35.00005
C30  24713577.66306    -63529.55906      2937.54906        39.60006  24713580.06105    -25146.43105      2192.92005        35.20005
R16  22847179.84306   -118538.13106      1442.44206        38.90006
C36  25862165.91226    118892.21226     -1056.56726        39.50026  25862178.50306    106570.32406      -786.83306        39.50006
R15  22266198.24826   2483272.40326     -2184.07726        37.90026
R08  20988353.58206   4316172.73006     -2165.23006        38.10006
R24  19403011.19106   2994811.33606      -208.48806        36.10006
C41  22984556.43925   -108093.78025      2130.23025        35.40025  22984568.73115    -14983.83115      1595.23915        30.20015
R01  19961072.45405   2476854.45205      2079.11005        34.20005
E12  23417231.90405     58883.85105       546.30505        34.20005  23417230.70514     37316.12914       403.72914        27.00014
C33  23066783.81415     57876.63615      -976.83615        33.40015  23066800.60325    106784.57025      -726.85525        29.50025
E11  25091580.877 5    161577.645 5      2398.187 5        32.200 5  25091587.47214    232856.82814      1790.89714        25.70014
E29  25958190.93505    -24421.74005       844.78605        32.50005  25958205.62504     48306.48904       628.07904        28.30004
E33  24873480.06505     92925.27405     -1848.32205        31.80005  24873473.16914    134124.86514     -1369.00314        25.80014
E07  27780305.81125    170411.56725     -1674.23225        31.70025  27780305.81114    489491.40414     -1247.50714        27.80014
C42  26875878.43315    158031.84715     -3201.87715        29.90015  26875916.80714    190526.39014     -2393.01814        24.30014
E16  25234072.83115     98557.56215     -1777.78615        32.50015  25234079.12714    485626.26814     -1331.28814        28.00014
R23  23149111.02124   3667894.80724     -3425.53824        29.30024
E19  25778778.04024     73864.13024      2840.75924        25.60024  25778779.53914    -42964.49514      2114.49214        24.50014
R02  23012666.77924  -6032249.66624      4556.31124        25.40024
R14  24175250.53923  -2002472.19523     -4087.61723        21.10023
C28  22431626.72525    104086.21425     -1884.39525        33.70025  22431625.52524    141891.71824     -1415.04824        27.30024
> 2026 04 21 14 03 54.9999873  0 34                      
G08  21075680.72607    116658.65407     -2296.59807        44.30007  21075683.12526    154479.40426     -1714.66626        38.10026
G14  23211566.18426    -45653.44926       863.91726        40.60026  23211572.77925     32705.07925       639.33925        34.80025
G02  20551938.20606     13474.13106        89.11606        40.60006                                                                
G17  25512269.14007    -87346.41007      3391.64007        42.00007                                                                
G01  21306372.52206   -101717.78906      2148.62906        40.20006  21306378.51825     -9446.68725      1607.04825        33.60025
G10  23005046.65416    152617.00116     -2793.58216        39.30016  23005047.25415    179523.66815     -2078.67315        32.90015
G22  24228750.60226    -84150.21826      1616.66026        37.20026                                                                
G32  22415575.53715     33387.57715      1022.13715        34.40015  22415567.14214     19032.87114       756.03514        27.80014
G03  23658453.61023   -135256.99423      3788.93223        23.00023  23658448.81313    519606.33813      2833.77813        17.90013
G27  23386501.97815    196498.96015     -3637.74215        33.40015  23386493.28425    211574.10225     -2728.19725        32.00025
R17  21255685.41207   4350895.75307      3073.78907        42.80007
E25  25924250.23207    -40170.61207       772.65507        42.60007  25924255.62825     65640.81325       567.41525        30.40025
C27  21416393.95626     -7929.41826       503.89426        39.70026  21416405.34824     61289.10924       379.03824        29.10024
R16  22846912.12806   -119977.33406      1436.93806        38.90006
E10  24647675.18606      3338.52106      1613.56906        39.90006  24647684.77925     26689.17025      1205.94525        34.40025
C30  24713010.45526    -66464.01526      2931.97126        39.50026  24713018.85015    -27336.60515      2187.48515        35.20015
R15  22266617.05806   2485461.53506     -2190.58006        38.20006
C36  25862367.07226    119950.95826     -1057.01626        39.30026  25862375.76606    107359.56306      -790.31606        39.50006
R08  20988738.51506   4318339.44406     -2167.04106        38.00006
C41  22984147.52226   -110222.66726      2126.53026        35.70026  22984159.21425    -16572.74825      1585.05425        30.50025
R24  19403034.27506   2995024.54406      -214.06906        36.10006
R01  19960666.83405   2474782.59705      2064.87205        34.30005
E12  23417118.88315     58341.02015       541.46615        34.20015  23417121.58124     36911.86924       408.11624        27.20024
C28  22431984.97715    105973.85515     -1888.85915        33.60015  22431981.37914    143303.54314     -1415.21514        27.90014
E11  25091132.387 5    159185.966 5      2388.633 5        32.600 5  25091130.88814    231072.76914      1788.69114        25.80014
C33  23066973.58315     58858.21415      -984.03815        33.30015  23066987.37415    107517.93215      -733.02815        29.50015
E29  25958043.73725    -25254.16625       827.56425        32.40025  25958033.54414     47685.54014       616.19214        28.10014
E33  24873833.82015     94777.30515     -1846.16215        31.70015  24873821.22814    135505.64714     -1371.02014        25.80014
E07  27780631.68515    172090.19315     -1677.22015        31.60015  27780628.68814    490746.18114     -1256.18314        27.60014
E16  25234408.29925    100342.95825     -1786.51425        32.00025  25234411.89714    486958.22814     -1332.75814        27.40014
C42  26876480.11715    161240.93015     -3217.74815        29.80015  26876513.09414    192923.33914     -2394.81714        23.60014
R23  23149754.97524   3671322.46424     -3428.31524        29.30024
E19  25778241.11224     71040.62324      2825.17724        25.60024  25778239.31314    -45073.99614      2109.33314        24.50014
R14  24176000.91923  -1998384.32523     -4088.03423        21.00023
> 2026 04 21 14 03 55.9999857  0 34                      
G08  21076098.03807    118953.67907     -2294.69507        44.10007  21076098.93706    156192.98306     -1713.31306        37.20006
G14  23211380.61226    -46521.60026       869.23326        41.20026  23211388.40715     32063.75515       646.61315        34.40015
G02  20551898.93306     13381.83006        92.83906        40.70006                                                                
G01  21305954.31116   -103868.41116      2150.57916        40.10016  21305947.41615    -11051.91015      1606.49615        33.40015
G17  25511605.10007    -90739.90707      3394.58607        41.70007                                                                
G10  23005558.70006    155408.41906     -2789.30606        39.30006  23005556.30115    181606.45015     -2081.46315        31.90015
G22  24228415.73326    -85771.94226      1623.24426        37.40026                                                                
G32  22415365.38215     32363.50015      1022.72415        34.40015  22415355.18914     18276.35614       760.68514        27.80014
G27  23387179.50925    200137.00425     -3639.50825        33.20025  23387165.41905    214297.66805     -2723.34305        31.70005
G03  23657726.31323   -139048.93923      3790.94023        22.90023  23657708.62613    516779.02813      2824.08213        18.00013
R16  22846616.83307   -121417.42607      1440.78807        44.30007
R17  21255091.22307   4347820.29907      3075.87907        43.00007
E25  25924081.74807    -40947.91007       778.55107        42.60007  25924085.64625     65066.44625       575.41825        30.40025
E16  25234721.88205    102128.06105     -1785.45905        34.30005  25234730.27605    488290.54805     -1334.00205        33.60005
C27  21416286.63026     -8435.62726       506.28926        39.70026  21416287.52914     60912.56714       371.85514        28.80014
E10  24647359.20516      1721.23516      1615.04616        39.80016  24647355.00805     25482.96505      1205.95505        34.10005
C30  24712432.45606    -69399.03506      2934.30706        39.40006  24712438.15205    -29527.50805      2188.77105        35.10005
E11  25090652.41906    156792.20006      2395.31206        38.40006  25090654.81804    229285.16504      1786.87904        26.50004
C36  25862546.34806    121006.50506     -1054.94906        39.10006  25862554.44306    108147.74406      -787.65306        39.70006
R15  22266988.80106   2487650.38706     -2185.96706        38.30006
R08  20989140.23706   4320507.72106     -2169.31106        37.90006
C41  22983731.71026   -112351.55026      2127.88526        36.00026  22983733.80905    -18161.77305      1586.58105        31.70005
R24  19403066.05306   2995238.45306      -215.26006        36.00006
E12  23416998.36605     57796.24905       544.24305        34.30005  23416996.86714     36508.49214       403.93614        27.20014
R01  19960275.90515   2472708.51315      2076.20015        34.30015
C28  22432330.63715    107855.20515     -1873.70815        33.60015  22432322.54314    144715.68714     -1411.30514        27.90014
C33  23067135.17115     59835.55915      -972.23015        33.20015  23067152.55914    108253.48014      -740.64314        29.00014
E29  25957835.08115    -26092.92715       840.43015        32.30015  25957864.16114     47062.82714       619.59714        27.90014
E07  27780918.88725    173770.56925     -1679.25325        31.50025  27780941.07114    491998.07114     -1244.94814        26.80014
E33  24874142.60605     96625.34205     -1851.54305        31.70005                                                                
R23  23150381.84124   3674744.78224     -3420.40424        29.30024
C42  26877074.90515    164450.79015     -3205.25215        29.80015  26877103.08513    195323.61413     -2400.44113        23.20013
E19  25777683.79724     68215.40124      2817.08324        25.50024  25777678.70124    -47182.55524      2110.59124        24.40024
R14  24176818.75323  -1994298.73623     -4086.45423        21.00023
> 2026 04 21 14 03 56.9999842  0 34                      
G08  21076558.81907    121249.92807     -2296.86307        43.90007  21076561.51726    157907.76426     -1715.38426        36.70026
G14  23211243.60727    -47388.32627       866.01527        41.90027  23211245.70625     31417.45325       645.29325        34.00025
G02  20551910.32506     13290.33206        91.84606        41.00006                                                                
G01  21305564.58106   -106019.48706      2149.80606        40.10006  21305563.68225    -12658.95625      1590.46125        33.40025
G17  25510988.42706    -94133.76506      3393.79406        41.40006                                                                
G22  24228134.82826    -87392.32526      1619.71526        37.90026                                                                
G32  22415202.59505     31340.79705      1022.76805        34.40005  22415193.00115     17519.84015       758.01715        29.60015
G27  23387896.31325    203771.28225     -3629.40125        33.00025  23387886.72025    217019.95625     -2721.65425        31.40025
G03  23657021.80123   -142840.63223      3792.57223        22.90023  23657006.51213    513952.42713      2826.25013        18.90013
G10  23006112.41606    158199.09806     -2791.06406        39.20006  23006109.11925    183691.12925     -2088.13125        31.40025
C36  25862769.09407    122063.33707     -1057.47507        42.40007  25862782.58506    108936.91706      -789.67106        41.00006
R16  22846377.29907   -122856.14507      1438.03407        45.10007
R17  21254545.30107   4344745.43607      3075.32307        43.10007
E25  25923961.23207    -41724.70507       776.54507        42.60007  25923963.63025     64486.99525       587.99325        30.90025
E16  25235093.02526    103913.13726     -1785.06626        40.60026  25235095.72306    489623.78306     -1333.19406        37.20006
C27  21416216.17906     -8941.68906       505.98906        40.10006  21416215.27924     60535.76324       375.43624        28.60024
C30  24711903.32206    -72333.72706      2935.03206        39.40006  24711906.02005    -31719.12605      2192.98005        35.30005
E10  24647075.00206       103.80006      1617.01206        39.70006  24647073.50325     24274.64225      1212.38425        33.90025
E11  25090224.31606    154399.31606      2392.44706        38.60006  25090224.01624    227498.13524      1789.74524        27.10024
R15  22267431.29506   2489843.04606     -2194.06506        38.30006
R08  20989561.14606   4322676.86506     -2169.58106        37.80006
C41  22983347.37606   -114479.46806      2127.93906        36.30006  22983353.67215    -19750.40515      1589.43815        31.70015
R24  19403133.80706   2995453.00006      -215.36606        36.10006
E12  23416922.81805     57252.52505       543.70005        34.80005  23416920.72024     36102.83424       404.79924        27.60024
R01  19959900.26515   2470634.63615      2076.77815        34.30015
C33  23067334.83325     60809.85425      -979.77125        33.10025  23067366.61114    108984.14914      -728.73014        28.40014
E29  25957725.95725    -26927.83825       836.48825        32.20025  25957731.95314     46441.73614       623.28114        27.90014
E33  24874537.43325     98475.08425     -1848.09825        31.60025  24874552.12214   3907151.37114     -1383.49514        23.90014
E07  27781260.65005    175452.47505     -1683.67405        31.40005  27781286.73214    493247.24414     -1239.31714        25.70014
R23  23151010.50624   3678165.30724     -3419.38424        29.30024
C42  26877713.76315    167663.14415     -3210.10615        29.70015  26877742.24313    197723.47513     -2395.65913        22.90013
E19  25777177.14824     65390.82524      2821.75724        25.50024  25777169.65324    -49291.98224      2107.36424        24.30024
R14  24177638.68623  -1990209.09023     -4088.68123        21.10023
C28  22432710.77415    109741.75115     -1884.64615        33.50015  22432707.77614    146124.94714     -1413.82114        27.60014
> 2026 04 21 14 03 57.9999826  0 34                      
G08  21076971.93307    123543.78407     -2292.66507        43.80007  21076976.729 6    159620.787 6     -1716.648 6        36.400 6
G14  23211055.33727    -48254.81527       868.62227        42.00027  23211058.93506     30768.62906       650.58606        37.60006
G02  20551871.05206     13195.44906        96.32606        41.20006                                                                
G01  21305134.37906   -108174.29606      2158.67906        40.00006  21305131.38105    -14268.90105      1612.39605        34.70005
G17  25510321.08906    -97529.30006      3397.12806        41.00006                                                                
G10  23006617.86606    160987.73306     -2786.86806        39.10006  23006618.46605    185773.47805     -2082.18705        31.30005
G22  24227802.35826    -89013.68926      1622.60626        38.00026                                                                
G32  22414985.84515     30314.33715      1030.58915        34.40015  22414977.45125     16754.21425       772.18325        29.50025
G27  23388570.24625    207400.72625     -3631.53225        32.80025  23388558.55425    219740.56325     -2710.77025        31.00025
G03  23656266.02423   -146631.57123      3792.06923        23.10023  23656260.02913    511129.60613      2823.93713        19.30013
R16  22846082.60307   -124297.30407      1442.38207        45.40007
R17  21253940.91907   4341668.07907      3077.60807        43.10007
C36  25862951.96807    123117.62207     -1053.01307        43.50007  25862961.56106    109724.19606      -786.33306        41.10006
E25  25923790.65027    -42503.45527       778.22927        42.50027  25923792.74805     63905.95705       579.83205        31.90005
E16  25235406.30806    105696.32906     -1782.25306        40.70006  25235412.60406    490955.34706     -1330.73106        38.60006
C27  21416094.16306     -9450.15406       509.66706        40.30006  21416096.861 4     60156.201 4       380.442 4        29.000 4
E10  24646740.13306     -1515.54906      1620.80906        39.60006  24646743.13105     23065.46005      1210.11305        34.60005
R15  22267819.82606   2492029.46506     -2183.80306        38.50006
C30  24711320.22626    -75271.12526      2935.75526        39.30026  24711325.62206    -33912.70406      2194.56106        36.70006
E11  25089754.24106    152003.31406      2399.06406        38.50006  25089745.84704    225709.30704      1791.72904        27.80004
R08  20989946.97906   4324843.21906     -2163.46306        37.70006
C41  22982917.47406   -116610.08506      2131.96906        36.50006  22982925.56815    -21340.78615      1598.75815        31.70015
R24  19403151.19506   2995664.29306      -210.91606        36.50006
E12  23416798.10505     56706.20205       546.12505        35.00005  23416790.91014     35694.81514       408.20114        27.80014
R01  19959497.64415   2468560.71515      2072.19615        34.20015
C33  23067510.81125     61780.70525      -964.13225        33.10025  23067530.29824    109715.28624      -730.87324        28.80024
C28  22433042.34515    111620.62115     -1884.53615        33.40015  22433040.54614    147533.15714     -1416.18614        27.10014
E29  25957529.59305    -27775.25705       845.17305        32.00005  25957550.57814     45815.85914       626.27014        27.90014
E07  27781557.74425    177127.89925     -1676.68525        31.40025  27781560.44314    494495.93114     -1236.94514        25.00014
R23  23151656.25825   3681581.21325     -3418.10325        29.50025
C42  26878320.84215    170871.90815     -3206.97415        29.50015  26878323.54013    200113.76913     -2391.51413        22.60013
E19  25776614.43824     62562.24924      2824.58124        25.40024  25776609.34114    -51402.92814      2110.70914        24.20014
R14  24178276.34423  -1986119.13623     -4088.61623        21.10023
E33  24874867.20405    100318.46605     -1834.70505        31.50005  24874872.00113   3908530.31513     -1377.99313        23.40013
> 2026 04 21 14 03 58.9999812  0 34                      
G08  21077436.61107    125866.80407     -2337.60407        43.70007  21077439.30906    161355.93806     -1744.71706        36.30006
G14  23210913.83527    -49094.77927       826.70127        42.00027  23210919.83106     30140.43806       617.87406        38.70006
G02  20551877.34806     13129.46506        51.53406        41.40006                                                                
G01  21304744.94906   -110299.21406      2110.22606        39.90006  21304746.74725    -15857.56425      1579.52525        35.40025
G22  24227522.35226    -90608.68526      1583.81526        38.00026                                                                
G32  22414810.76615     29316.71015       983.96315        34.40015  22414805.37014     16004.30514       760.55114        29.20014
G17  25509704.41606   -100895.80506      3350.99506        40.50006                                                                
G27  23389268.76325    211061.17325     -3670.95325        32.50025  23389278.35625    222479.77825     -2757.52425        30.30025
G03  23655580.09924   -150393.73624      3751.03324        23.80024  23655563.61116    508322.88916      2803.66816        38.00016
G10  23007171.88306    163799.47306     -2823.54506        39.00006  23007172.18315    187875.29515     -2111.05415        31.30015
R16  22845841.86907   -125710.74607      1400.33407        45.60007
E07  27781902.50606    178827.86106     -1712.23506        37.20006  27781906.70316    495764.80416     -1277.96916        39.60016
R17  21253398.59507   4338620.34507      3034.67707        43.10007
E25  25923665.33707    -43253.49007       736.17707        42.40007  25923668.03525     63344.60825       551.50625        31.90025
C36  25863173.81427    124202.79027     -1097.61127        43.40027  25863187.30506    110532.56006      -818.90806        41.10006
C27  21416028.80806     -9930.10106       465.68906        40.40006  21416025.81005     59797.74905       348.39605        29.80005
E16  25235776.25206    107510.88706     -1830.24306        40.70006  25235778.05106    492310.32806     -1366.69006        38.30006
E10  24646457.72906     -3105.94306      1577.41806        39.50006  24646459.82805     21876.62005      1178.17105        35.00005
R15  22268257.82206   2494246.82506     -2232.83406        39.00006
C30  24710786.59526    -78180.74526      2895.23626        39.20026  24710792.29106    -36085.29006      2162.09306        36.90006
R08  20990374.78306   4327034.15606     -2203.73206        37.60006
E11  25089315.04526    149638.02026      2347.94326        38.40026  25089317.44424    223943.29924      1750.60124        29.10024
R24  19403216.54906   2995903.96706      -253.36506        36.70006
C41  22982546.63116   -118713.72416      2088.65416        36.60016  22982546.93025    -22912.33425      1558.13325        31.60025
E12  23416717.16125     56188.33425       504.14025        35.10025  23416715.06224     35306.80224       372.51024        28.50024
R01  19959141.79005   2466510.54105      2036.30205        34.20005
C33  23067716.76925     62781.33125     -1013.51425        33.00025  23067741.35214    110465.61014      -759.91814        29.10014
C28  22433429.67615    113526.29315     -1916.57415        33.20015  22433426.07914    148965.05014     -1449.23614        26.60014
E29  25957401.28225    -28590.25725       804.29325        32.00025  25957415.67214     45213.12414       591.66514        28.80014
E33  24875232.95125    102188.20925     -1881.92725        31.40025  24875240.14614   3909929.82314     -1398.50914        24.60014
R23  23152328.69325   3685030.94925     -3462.90425        29.70025
C42  26878922.22614    174103.58714     -3242.14114        29.40014  26878955.50313    202522.51713     -2414.97813        22.40013
R14  24179007.53823  -1982013.50523     -4122.47323        21.40023
E19                                                                  25776097.29614    -53493.37214      2080.69714        23.70014
> 2026 04 21 14 03 59.9999797  0 33                      
G32  22414605.10806     28321.80606       994.54306        40.60006  22414606.00824     15261.58224       735.63124        29.00024
G08  21077871.61017    128185.41417     -2321.65917        43.50017  21077871.01006    163090.69006     -1734.55506        36.20006
G14  23210745.95227    -49927.70527       829.90827        42.00027  23210749.24906     29517.23706       620.70706        38.90006
G02  20551856.06307     13063.82707        65.46507        41.60007                                                                
G10  23007694.72106    166606.25706     -2803.56206        39.90006  23007694.72105    189971.14305     -2097.36605        33.00005
G01  21304330.03606   -112419.61906      2117.90106        39.90006  21304332.73425    -17441.57925      1590.69225        35.40025
G22  24227212.66626    -92198.07926      1585.84526        38.10026                                                                
G17  25509063.75926   -104257.14926      3359.76826        39.50026                                                                
G27  23389980.17025    214721.76125     -3664.16425        32.30025  23389966.68015    225217.57915     -2732.09815        29.60015
G03  23654842.31025   -154148.05025      3750.64425        31.30025  23654839.91206    505520.46506      2798.28306        38.00006
R16  22845563.96207   -127121.00407      1409.16907        45.50007
E29  25957229.20106    -29408.28306       814.04006        38.60006  25957229.50114     44605.48114       605.59814        28.80014
R24  19403250.12606   2996142.35706      -237.74906        39.10006
R17  21252819.99507   4335577.45107      3039.22807        43.10007
E25  25923522.33607    -43998.14507       743.46807        42.30007  25923517.23905     62788.95705       555.80205        32.50005
C33  23067886.45106     63780.61706      -999.61806        41.10006  23067918.52906    111211.89406      -744.26506        39.80006
E33  24875583.10906    104055.09406     -1866.45806        36.20006  24875579.21124   3911325.03124     -1396.56124        26.30024
C27  21415919.68406    -10409.17206       478.63406        40.50006  21415925.38025     59441.50025       352.14925        29.90025
C36  25863375.57427    125292.06627     -1093.83227        43.10027  25863384.86826    111346.37326      -816.53926        40.30026
E16  25236115.91706    109330.78506     -1821.07106        40.60006  25236113.81906    493669.43806     -1361.17806        38.10006
E10  24646148.34306     -4691.45206      1582.56906        39.40006  24646150.14215     20691.41415      1181.89015        33.50015
E07  27782218.18726    180524.83326     -1696.47826        41.40026  27782220.28606    497031.90306     -1268.21306        39.60006
R15  22268663.74116   2496470.27016     -2224.99016        39.20016
R08  20990768.41006   4329222.65306     -2185.77906        37.60006
E11  25088857.86206    147279.71106      2353.82106        38.20006  25088858.46105    222182.80405      1757.24005        31.00005
C41  22982128.42026   -120819.42426      2107.23326        36.60026  22982138.31305    -24482.60805      1568.64005        31.60005
E12  23416601.74105     55671.49905       516.32105        35.10005  23416608.63604     34920.30204       380.24504        28.50004
R01  19958736.77115   2464462.01915      2045.45115        34.10015
C28  22433780.73315    115436.47615     -1910.94315        33.10015  22433785.83014    150394.87514     -1434.79514        26.10014
R23  23152951.06225   3688480.64225     -3450.42825        29.90025
C42  26879534.70214    177335.41814     -3230.91314        29.30014  26879557.48613    204931.68213     -2405.37813        22.20013
R14  24179767.81223  -1977908.55323     -4101.86923        22.20023
C30  24710231.37926    -81082.32626      2901.06426        39.20026  24710229.58126    -38252.57826      2164.64326        36.50026
> 2026 04 21 14 04 00.9999781  0 33                      
G10  23008238.54508    169413.69608     -2808.01908        48.60008  23008237.34505    192067.40605     -2094.97505        34.20005
G32  22414420.43607     27326.76607       993.86007        43.20007  22414423.734 5     14518.832 5       741.766 5        30.600 5
G02  20551851.26607     13000.59707        62.77507        41.90007                                                                
G14  23210599.35327    -50755.62927       825.92627        41.90027  23210600.85206     28898.90606       615.89806        39.50006
G22  24226917.37126    -93782.55326      1582.01726        38.30026                                                                
G08  21078315.30307    130508.09107     -2323.71407        43.00007  21078322.19826    164825.81226     -1735.30926        36.20026
G17  25508429.99826   -107617.60426      3362.01626        38.40026                                                                
G03  23654135.10025   -157899.22825      3746.86425        31.80025  23654134.50006    502720.62506      2798.55206        37.90006
G27  23390690.67825    218385.11625     -3661.74425        32.10025  23390672.99114    227956.45114     -2732.91214        29.00014
G01  21303939.40606   -114535.61906      2112.30006        39.90006  21303940.00625    -19021.78625      1575.30625        35.30025
R24  19403299.29207   2996382.60207      -241.17207        44.20007
C28  22434150.67705    117346.42905     -1910.34005        35.00005  22434153.07626    151821.50926     -1422.04026        35.60026
R17  21252262.08207   4332539.81607      3034.51107        43.10007
E25  25923383.83127    -44736.52227       736.23927        42.20027  25923385.03105     62237.26205       548.71805        33.50005
C27  21415840.53906    -10885.48306       474.93206        40.70006  21415842.93705     59085.39505       355.53205        30.90005
