     3.05           OBSERVATION DATA    M                   RINEX VERSION / TYPE
GnssLogger          samsung 16          20260421 133434 UTC PGM / RUN BY / DATE
Google GnssLogger                                           MARKER NAME
Unknown                                                     MARKER NUMBER
Unknown             Unknown                                 OBSERVER / AGENCY
Unknown             GnssLogger          v3.1.1.2            REC # / TYPE / VERS
Unknown             Unknown                                 ANT # / TYPE
        0.0000        0.0000        0.0000                  ANTENNA: DELTA H/E/N
G    8 C1C L1C D1C S1C C5Q L5Q D5Q S5Q                      SYS / # / OBS TYPES
R    4 C1C L1C D1C S1C                                      SYS / # / OBS TYPES
C    8 C1P L1P D1P S1P C5P L5P D5P S5P                      SYS / # / OBS TYPES
E    8 C1C L1C D1C S1C C5Q L5Q D5Q S5Q                      SYS / # / OBS TYPES
  2026    04    21    13    34   34.0000000     GPS         TIME OF FIRST OBS
 9 R01  1 R07  5 R08  6 R14 -7 R15  0 R16 -1 R17  4 R23  3  GLONASS SLOT / FRQ #
   R24  2                                                   GLONASS SLOT / FRQ #
samsung SM-S921B (Android 16) HW Year: 2021 HW Model:       COMMENT
S.LSI,K43E1,SPOTNAV_4.17.16_27_E_275468                     COMMENT
                                                            END OF HEADER
> 2026 04 21 13 34 34.0000000  0 30                      
G10  22153559.51307     62031.05407     -2122.63607        44.50007  22153561.31205    113600.87505     -1585.27505        33.70005
G32  22915639.73607    -25348.73707      2059.07607        42.80007  22915649.92914     47176.34314      1535.75714        26.30014
G23  24640156.87706     89498.67506     -3435.10406        40.50006  24640149.68224    832754.53524     -2563.95524        27.80024
G02  20679522.86706       983.59006       798.54706        37.00006                                                                
G14  23670705.71424    -32167.36124      1982.94924        28.00024  23670709.01213     43624.66613      1488.09013        23.30013
G22  24904330.09424     25560.37924      2510.64924        26.10024                                                                
G01  22102056.36824     -5523.71924      2719.48424        23.50024                                                                
G27  22228837.99907     82529.46407     -3103.92107        42.40007  22228840.09706    129601.60806     -2318.54806        36.80006
G08  20448715.35206     44724.75706     -1297.61206        36.90006  20448717.75005    100034.22805      -969.16005        33.60005
C28  21889532.59506    111796.43606     -1217.67306        40.90006  21889526.89914     76461.78214      -913.52914        24.10014
R24  19472668.15506   3392103.26706       752.85706        39.60006
E33  24291718.89606    117324.74806     -1489.02506        39.80006  24291719.49525    113012.00425     -1111.77525        29.60025
R08  20508742.49606   5120137.28806      -577.92606        39.50006
C42  25855608.13806     65567.13506     -2710.47006        38.60006  25855621.92814    108592.83014     -2029.11514        26.60014
R23  22070469.33506   3185008.93606     -2982.43606        38.60006
C41  23818749.82606    -43832.14806      2941.00606        38.10006  23818755.52224     73461.85224      2195.14724        26.20024
C33  22901965.30206     14750.69106       135.30506        38.40006  22901997.08015     63998.10015        96.62015        34.30015
R01  20859601.90106   2529394.83006      3447.15906        36.30006
R16  23537668.91405    -88885.05305      2838.13505        33.00005
E29  26364053.74806     51745.31706      1691.81906        35.60006                                                                
E25  26308932.40805     52872.39705      1637.42805        30.50005  26308946.79814     30713.54514      1222.67214        24.80014
E12  23660596.41305     65274.92505      1043.42305        30.00005  23660587.41904    742090.50704       774.13404        27.00004
C27  21686925.65715    -16182.46815      1222.42315        30.80015  21686891.18114     48656.36814       910.22114        27.20014
E16  24752081.39414     77388.70914      -947.38614        26.40014                                                                
E07  27333944.40715     35066.49715      -833.48615        29.70015  27333972.58724     78240.45824      -620.01324        28.50024
R07  23497518.60924  55610741.74724     -3726.49124        25.60024
R15  21760092.10524   2374302.37424      -705.36324        27.70024
R14  22857461.41223  -5748798.70723     -3684.09223        20.80023
R17  22308298.28923   6588068.63123      3432.86223        22.80023
C36  25646109.57114     58418.51614       -67.09314        24.20014                                                                
> 2026 04 21 13 34 34.9999977  0 30                      
G10  22153965.73207     64244.91407     -2257.52607        44.30007  22153973.82605    115254.05305     -1685.72205        33.90005
G27  22229436.68407     85724.29107     -3238.37907        42.30007  22229436.68406    131987.21006     -2417.53106        36.70006
G32  22915254.50207    -27316.82507      1924.49507        42.50007  22915267.09414     45706.35314      1436.73714        26.00014
G23  24640809.52506     93024.96306     -3569.84106        40.40006  24640810.12514    835385.90214     -2664.82114        27.30014
G02  20679369.07406       276.37106       663.57106        37.00006                                                                
G08  20448969.87606     46113.54706     -1432.51006        36.50006  20448970.17505    101071.22405     -1069.53905        34.70005
G14  23670321.38024    -34063.82424      1854.87324        28.00024  23670334.27113     42209.97813      1383.07213        22.90013
G22  24903878.30724     23135.51824      2380.73824        26.10024                                                                
G01  22101555.41423     -8146.13123      2577.93823        23.40023                                                                
C28  21889766.73306    113105.14906     -1352.26506        40.80006  21889761.33624     77438.67124     -1010.06724        24.60024
R24  19472535.64706   3391443.12106       615.75306        39.80006
E33  24292007.29606    118904.62106     -1623.31106        39.70006  24292019.28805    114191.98505     -1212.46405        29.60005
R08  20508850.72106   5120807.57106      -714.72606        39.30006
C42  25856136.67206     68368.84406     -2845.36506        38.40006  25856146.56514    110687.38614     -2123.17114        26.00014
R23  22071032.64506   3188083.85106     -3119.15406        38.40006
C33  22901943.11806     14706.45606         0.57806        38.10006  22901974.59605     63965.11205         2.28205        34.70005
C27  21686653.44525    -17313.96925      1089.91425        30.40025  21686663.63806     47811.40406       813.53806        38.10006
C41  23818187.71516    -46681.88516      2807.62516        37.80016  23818202.10505     71333.76305      2094.78005        32.90005
R01  20858963.04306   2526040.18806      3310.27206        35.90006
E29  26363733.27005     50144.70205      1556.99305        35.00005  26363744.06314    389645.98114      1191.93214        28.90014
R16  23537161.06505    -91629.59305      2699.80205        32.90005
E25  26308648.50505     51325.69005      1506.20705        30.50005  26308643.10814     29559.27214      1117.62414        24.50014
E12  23660390.45525     64324.78225       910.70225        29.90025  23660393.45304    741380.69504       678.89204        28.80004
R17  22307651.93724   6584727.77224      3296.62524        24.50024
E07  27334119.48604     35992.15004      -968.66104        29.10004  27334138.97204     78931.45404      -724.53204        28.80004
E16  24752254.37414     78420.40714     -1077.58614        26.20014                                                                
R07  23498223.42124  55614558.26724     -3863.26724        25.30024
R15  21760241.70124   2375090.64824      -835.50824        27.10024
R14  22858099.97023  -5745032.87823     -3811.80823        21.00023
C36  25646138.95014     58587.84814      -213.27514        23.50014                                                                
> 2026 04 21 13 34 35.9999954  0 28                      
G10  22154377.64607     66463.26607     -2220.60307        44.20007  22154385.44105    116910.66705     -1658.33505        34.30005
G27  22230032.07207     88923.57007     -3201.51107        42.20007  22230033.27106    134376.35706     -2390.92506        36.60006
G08  20449221.10206     47507.03806     -1395.84606        41.30006  20449223.20006    102111.88006     -1042.48906        35.50006
G32  22914867.47007    -29280.25507      1961.10607        42.20007  22914883.95914     44240.56814      1467.18614        25.80014
G23  24641464.87206     96555.56906     -3532.77306        40.40006  24641470.86824    838022.69124     -2633.50624        26.90024
G02  20679220.37706      -426.24706       700.32006        37.20006                                                                
G14  23669960.13024    -35954.81024      1895.00324        27.90024  23669964.62713     40791.19813      1419.82813        22.60013
G22  24903425.02124     20710.77424      2429.19124        26.00024                                                                
C33  22901927.22907     14667.34807        36.54507        43.90007  22901955.70906     63935.81806        27.44806        35.70006
C28  21890001.17006    114418.55806     -1315.76006        40.60006  21889997.57324     78419.69124      -979.08824        25.20024
R24  19472395.34406   3390787.72806       653.01706        40.00006
E33  24292296.29606    120488.98006     -1586.60606        39.60006  24292313.38405    115375.17105     -1184.79205        30.50005
R08  20508964.34206   5121483.28206      -678.42606        39.10006
C42  25856655.01306     71174.99706     -2808.38206        38.30006  25856664.00714    112781.01914     -2089.67714        25.70014
R23  22071597.15406   3191163.47906     -3081.99106        38.30006
C27  21686431.59906    -18440.28606      1123.22706        36.10006  21686437.59506     46970.26706       839.22406        38.10006
R01  20858314.29206   2522690.62806      3346.27606        35.60006
E07  27334278.97525     36922.12825      -932.64325        33.10025  27334304.45805     79626.05605      -696.40605        29.90005
E29  26363417.58905     48548.76105      1593.60805        34.70005  26363428.38104    388454.26204      1191.95004        28.90004
R16  23536640.92505    -94368.35405      2736.62905        32.80005
E25  26308334.62225     49783.14225      1548.47225        30.50025  26308334.32214     28407.59614      1151.38014        24.20014
E12  23660198.58825     63379.07825       941.98725        29.90025  23660200.08705    740674.46705       704.43805        30.50005
C41  23817636.99626    -49527.52226      2846.09326        37.00026  23817649.28705     69209.29305      2122.66705        32.90005
R17  22307024.77124   6581392.94224      3333.82424        28.60024
E16  24752454.33514     79456.48514     -1032.27014        26.10014                                                                
R07  23498946.52124  55618381.20224     -3826.15124        25.20024
R15  21760393.09624   2375884.75924      -793.03224        26.70024
R14  22858764.90923  -5741261.94823     -3769.98923        21.20023
> 2026 04 21 13 34 36.9999933  0 27                      
G10  22154812.04607     68681.19007     -2217.71507        44.10007  22154818.94105    118566.82805     -1655.93905        34.70005
G27  22230648.74507     92122.20807     -3198.32507        42.10007  22230653.84106    136764.94106     -2388.30706        36.50006
G08  20449499.60906     48900.07306     -1392.80906        41.30006  20449500.50806    103152.15506     -1040.08606        36.00006
G32  22914501.12407    -31244.25507      1964.28907        42.00007  22914506.22014     42771.32514      1468.47614        25.60014
G23  24642147.49906    100085.24806     -3529.22206        40.30006  24642155.89314    840657.37614     -2631.13914        26.70014
G02  20679095.06306     -1129.53006       703.61606        37.50006                                                                
G14  23669621.66524    -37844.35424      1888.82724        27.90024  23669618.96713     39374.83413      1424.15913        22.30013
G22  24902978.33024     18275.59724      2438.39824        25.90024                                                                
C33  22901932.02507     14627.69607        39.92507        45.60007  22901960.80506     63906.20806        29.76806        36.00006
R24  19472284.72106   3390131.90206       656.04406        40.20006
C28  21890263.18906    115731.29406     -1312.40206        40.50006  21890260.79124     79398.87024      -977.76024        25.60024
E33  24292608.38006    122072.57306     -1583.21306        39.60006  24292625.16805    116557.71205     -1182.22205        31.10005
R08  20509095.95106   5122158.86106      -675.51406        38.90006
C42  25857198.23706     73980.51706     -2805.20906        38.20006  25857211.12824    114875.97724     -2091.12524        25.60024
R23  22072179.05106   3194242.34706     -3078.49506        38.10006
C27  21686228.04006    -19567.31406      1127.38606        36.30006  21686234.33506     46128.68006       841.81406        38.00006
R01  20857706.31305   2519340.60105      3350.51905        35.30005
E07  27334464.84705     37851.54605      -929.13905        33.30005  27334490.02905     80320.27705      -694.03305        30.60005
E29  26363129.78805     46952.06505      1597.07605        34.40005  26363136.08405    387262.05005      1192.21405        29.80005
R16  23536138.77305    -97108.84305      2741.10805        32.80005
E12  23660041.19705     62432.65705       948.28205        30.20005  23660032.80305    739967.61905       707.16005        31.80005
C41  23817106.96326    -52372.67226      2845.41226        35.80026  23817120.15405     67084.16205      2125.46405        32.90005
E25  26308049.21915     48241.29015      1532.50715        30.40015  26308053.71624     27255.79924      1153.35824        24.10024
R17  22306429.98324   6578055.74224      3337.64224        28.60024
R07  23499672.01824  55622202.85524     -3821.51924        25.30024
E16  24752681.27814     80488.14814     -1023.45814        26.00014                                                                
R14  22859549.76623  -5737490.23923     -3766.60723        21.20023
> 2026 04 21 13 34 37.9999911  0 28                      
G10  22155233.25407     70901.20907     -2221.07207        44.20007  22155241.64805    120224.67005     -1658.68605        34.90005
G27  22231260.32207     95322.96107     -3201.81607        42.10007  22231263.02006    139155.17206     -2391.06006        36.40006
G32  22914130.58007    -33205.86007      1960.41207        41.80007  22914143.77114     41304.51614      1467.59514        25.50014
G08  20449764.02606     50295.50506     -1396.63506        41.20006  20449765.82506    104194.17306     -1042.89206        36.40006
G23  24642822.33206    103616.85906     -3532.58506        40.30006  24642829.22714    843292.71214     -2629.66714        26.50014
G02  20678960.75606     -1830.67006       700.07106        37.70006                                                                
G14  23669248.42324    -39733.25924      1883.34024        27.80024  23669256.51813     37952.74913      1423.44913        22.10013
G22  24902492.36624     15829.04524      2447.99524        25.80024                                                                
C33  22901922.43207     14590.44907        36.04507        45.60007  22901953.61006     63878.36806        26.95506        36.40006
C28  21890509.91806    117046.25106     -1316.07106        40.50006  21890512.01714     80379.72414      -980.69314        26.50014
R24  19472160.90606   3389478.35106       652.41506        40.20006
E33  24292908.77206    123658.11706     -1586.52306        39.90006  24292925.56005    117741.68105     -1184.68505        31.70005
R08  20509229.35906   5122837.35206      -679.95006        38.80006
C42  25857728.87006     76788.16306     -2808.71406        38.10006  25857743.85914    116965.01514     -2088.08214        25.50014
R23  22072758.85006   3197323.20406     -3081.85806        38.00006
C27  21686009.79126    -20692.51626      1121.29026        36.30026  21686019.38406     45288.67506       839.21606        37.80006
R01  20857078.54805   2515993.04705      3346.32505        35.20005
E07  27334646.22105     38783.59105      -933.36205        33.70005  27334668.10625     81016.28525      -699.90325        31.30025
E29  26362826.09805     45357.91605      1592.88005        34.30005  26362832.69425    386071.53425      1188.17125        29.80025
R16  23535603.94325    -99847.40825      2736.10925        32.60025
C41  23816576.63025    -55215.99125      2841.91025        34.90025  23816577.52905     64960.66005      2122.69305        32.80005
E12  23659856.22505     61488.06705       943.17605        30.30005  23659852.62805    739262.35305       704.47505        32.80005
E25  26307754.22425     46701.32125      1541.03125        30.30025  26307760.81924     26105.52724      1149.01324        24.60024
R17  22305772.53824   6574720.74624      3328.65124        28.80024
R15  21760693.78824  14431671.93524      -804.08024        27.60024
R07  23500381.92724  55626025.56024     -3820.74024        25.70024
E16  24752870.44714     81521.56914     -1023.30314        25.80014                                                                
R14  22860260.87423  -5733714.71623     -3774.93723        21.10023
> 2026 04 21 13 34 38.9999890  0 27                      
G10  22155666.45407     73126.06207     -2227.27407        44.50007  22155676.64705    121886.10105     -1663.23005        35.10005
G27  22231883.29007     98528.49907     -3207.93707        42.00007  22231883.59006    141548.91206     -2395.49906        36.30006
G32  22913775.62607    -35162.52707      1954.20107        41.70007  22913766.33314     39839.72414      1467.78714        25.20014
G08  20450038.93606     51695.91306     -1402.89806        41.10006  20450043.43206    105239.91906     -1047.61306        36.90006
G23  24643502.56106    107152.98606     -3538.39206        40.20006  24643507.65824    845933.14324     -2633.48424        26.40024
G02  20678840.24006     -2526.98006       693.89606        37.80006                                                                
G14  23668912.65624    -41616.65724      1884.39824        27.70024  23668909.65813     36538.92013      1412.20413        21.80013
C33  22901927.82807     14558.17707        29.78407        45.50007  22901958.40706     63854.29806        22.18606        36.70006
E33  24293226.25206    125248.23406     -1592.40706        40.30006  24293241.24205    118929.13505     -1189.19905        32.20005
R24  19472056.87806   3388829.81606       646.02906        40.30006
C28  21890776.13406    118365.71806     -1321.72406        40.50006  21890773.13604     81365.14704      -988.21104        26.90004
R08  20509367.86306   5123521.15706      -686.46306        38.70006
C42  25858279.88806     79600.48506     -2814.66606        38.10006  25858290.68124    119064.82224     -2091.69624        25.40024
R23  22073356.33606   3200408.77606     -3087.93606        37.90006
C27  21685810.72906    -21812.35306      1118.15706        36.20006  21685818.22306     44452.22106       834.68006        37.70006
R01  20856467.87105   2512650.52905      3340.00705        35.10005
E07  27334832.69205     39720.43205      -939.24005        33.80005  27334856.67505     81715.76505      -701.71805        31.70005
E29  26362532.30205     43768.08005      1587.68305        34.20005  26362542.49405    384884.30105      1184.59305        29.70005
C41  23816039.40225    -58055.01025      2835.37525        34.20025  23816048.69505     62840.80505      2118.03605        32.80005
E12  23659684.44405     60548.20605       937.49805        30.40005  23659685.04405    738560.54305       700.08405        33.50005
E25  26307466.12305     45165.68005      1537.97905        30.20005  26307479.31424     24958.43624      1148.50324        25.20024
R17  22305127.98424   6571389.31424      3332.90724        28.80024
R15  21760865.56924  14432476.42224      -807.39024        27.80024
R07  23501109.22424  55629848.90224     -3822.16724        25.70024
E16  24753056.319 4     82563.761 4     -1033.079 4        25.700 4                                                                
R16  23535098.19325   -102580.80625      2734.32125        32.00025
R14  22860973.18023  -5729935.11723     -3781.64623        21.10023
> 2026 04 21 13 34 39.9999869  0 27                      
G10  22156085.56407     75355.10307     -2231.13907        44.80007  22156092.75905    123550.64605     -1666.10605        35.40005
G27  22232484.07407    101738.09207     -3211.62807        42.00007  22232486.17306    143945.66106     -2398.25906        36.10006
G32  22913392.79107    -37115.01807      1950.40807        41.50007  22913382.59814     38380.23314      1462.84314        25.00014
G08  20450301.85406     53100.63706     -1406.88606        41.00006  20450304.25206    106288.89006     -1050.58406        37.30006
G23  24644169.59906    110692.94706     -3541.88706        40.20006  24644181.29114    848570.95114     -2634.50214        26.10014
G02  20678706.23206     -3219.21706       690.20106        38.10006                                                                
G14  23668536.41624    -43497.32924      1880.81224        27.60024  23668545.11013     35132.97313      1404.00913        21.60013
C33  22901916.43607     14530.28607        25.70207        45.40007  22901946.71506     63833.47406        19.20106        36.90006
E33  24293522.14706    126842.24006     -1595.95406        40.60006  24293536.83705    120119.49705     -1191.81905        32.60005
R24  19471923.77106   3388185.47506       642.24406        40.40006
C28  21891018.06606    119689.45006     -1325.86806        40.40006  21891018.96624     82353.96224      -990.51324        27.30024
R08  20509478.18706   5124209.71106      -690.93106        38.90006
C42  25858806.92306     82416.89606     -2818.46106        38.00006  25858820.71414    121169.10714     -2096.02814        25.40014
R23  22073922.64406   3203498.30206     -3091.50906        37.80006
C27  21685592.77906    -22928.37306      1114.11406        36.10006  21685599.37506     43618.74606       831.98606        37.70006
R01  20855831.41105   2509312.54905      3335.71805        35.00005
E29  26362226.21305     42182.67505      1583.19205        34.10005  26362231.31005    383700.40605      1182.72905        29.70005
E07  27334999.37705     40661.00905      -942.44705        33.90005  27335029.95505     82418.52005      -703.89405        32.10005
C41  23815503.07325    -60890.23825      2833.83825        33.70025  23815502.77305     60723.97105      2115.32805        32.90005
E12  23659502.77005     59612.34805       933.85905        30.50005  23659500.07205    737861.69805       697.36505        33.90005
E25  26307183.41905     43634.40905      1529.09005        30.10005  26307181.02024     23815.09424      1143.46924        25.50024
R17  22304528.69924   6568059.29624      3331.81924        28.80024
R15  21760981.58924  14433287.87824      -811.95824        27.70024
R07  23501833.52224  55633682.03124     -3834.28124        25.80024
E16  24753250.284 4     83611.139 4     -1045.473 4        25.500 4                                                                
R16  23534609.53225   -105306.70325      2719.65225        30.90025
R14  22861668.09923  -5726154.55023     -3783.05823        21.10023
> 2026 04 21 13 34 40.9999848  0 27                      
G10  22156520.56307     77585.19307     -2230.62007        45.20007  22156529.25706    125215.90206     -1665.61406        35.60006
G27  22233105.84407    104948.66207     -3211.06507        41.90007  22233108.84206    146343.09806     -2397.78606        36.00006
G08  20450579.76106     54506.52206     -1406.46706        41.00006  20450583.35906    107338.73506     -1050.28506        37.50006
G23  24644861.52006    114233.65306     -3541.08606        40.20006  24644864.51814    851215.36214     -2634.71714        25.90014
G02  20678584.21706     -3910.41806       690.68506        38.20006                                                                
G14  23668192.25424    -45372.48324      1870.89924        27.50024  23668196.45113     33727.61013      1402.57413        21.50013
G32  22913031.54106    -39066.34806      1950.75306        41.40006  22913017.45114     36915.59514      1461.71614        24.80014
C33  22901922.43207     14503.61507        26.06007        45.30007  22901952.71106     63813.54106        19.48706        37.20006
E33  24293836.33006    128437.18306     -1595.41406        40.80006  24293852.21905    121310.43405     -1191.22705        32.90005
R24  19471820.04206   3387542.25606       642.66006        40.50006
C28  21891284.88206    121014.17706     -1325.22706        40.40006  21891283.98214     83343.27714     -1001.56814        27.30014
R08  20509627.78306   5124899.78006      -690.82706        39.10006
C42  25859354.04506     85234.25606     -2817.84206        38.00006  25859359.74114    123271.22414     -2095.53714        25.40014
R23  22074507.53906   3206588.94906     -3091.21506        37.70006
C27  21685394.61706    -24043.41306      1114.55206        36.20006  21685398.81406     42786.09806       832.23706        37.60006
R01  20855220.73405   2505975.84305      3336.07605        35.00005
E29  26361934.21605     40598.13105      1584.11805        34.10005  26361943.80905    382518.27505      1182.75205        29.70005
E07  27335192.44325     41603.54525      -942.01825        33.90025  27335220.92305     83121.98605      -703.82205        32.30005
C41  23814959.54905    -63723.48105      2833.75605        33.30005  23814974.83905     58607.82705      2115.80205        33.00005
E12  23659335.18605     58677.40305       934.48905        30.60005  23659333.68705    737163.46205       697.93205        34.40005
E25  26306895.61805     42104.56205      1530.13805        30.00005  26306902.51304     22672.11504      1143.30104        26.10004
R17  22303880.84724   6564731.26824      3329.78924        28.60024
R07  23502548.82724  55637518.78024     -3840.81824        25.90024
R15  21761205.23424  14434105.27024      -820.86124        27.50024
E16  24753475.72814     84657.09914     -1048.75314        25.40014                                                                
R16  23534154.14725   -108032.47425      2722.46425        29.80025
R14  22862411.88423  -5722376.18523     -3782.77223        21.10023
> 2026 04 21 13 34 41.9999827  0 28                      
G10  22156939.07307     79818.39207     -2234.75807        45.70007  22156947.16806    126883.63106     -1668.97006        35.70006
G27  22233712.02407    108162.27907     -3215.14907        41.90007  22233714.72206    148742.95006     -2401.06406        35.80006
G32  22912656.20106    -41014.44306      1946.48206        41.30006  22912644.20914     35459.64714      1448.10514        24.50014
G08  20450843.57806     55915.67806     -1410.79506        40.90006  20450844.77806    108391.08306     -1053.60306        37.70006
G23  24645526.16006    117777.20806     -3544.98606        40.20006  24645534.85414    853861.46914     -2648.96214        25.70014
G02  20678447.51206     -4598.48106       686.49606        38.20006                                                                
G14  23667845.99424    -47245.27624      1868.11724        27.50024  23667831.00413     32329.56413      1394.89113        21.30013
G22  24900666.93023     98065.73823      2413.59723        22.60023                                                                
C33  22901911.04007     14480.33607        21.58407        45.20007  22901941.31906     63796.19106        16.05906        37.30006
E33  24294135.22306    130034.95906     -1599.19706        41.00006  24294149.91305    122503.62605     -1194.32105        33.00005
R24  19471696.82806   3386902.23806       638.41906        40.60006
C28  21891533.41006    122341.92106     -1329.25506        40.40006  21891529.81204     84334.29504      -987.87104        27.40004
R08  20509743.80306   5125593.52706      -695.58806        39.40006
C42  25859886.77606     88054.57406     -2821.80206        38.10006  25859895.77014    125378.12614     -2099.29914        25.30014
R23  22075087.33806   3209682.50106     -3095.01006        37.60006
C27  21685177.56706    -25155.49706      1110.60806        36.20006  21685180.26506     41955.76806       829.17206        37.50006
R01  20854591.76905   2502642.51905      3331.64105        35.00005
E29  26361628.12805     39016.94305      1579.51305        34.10005  26361635.92205    381337.52205      1179.56605        29.90005
E07  27335367.82205     42548.82005      -947.14505        33.90005  27335395.10305     83827.92705      -707.18005        32.50005
E12  23659153.81205     57745.44305       930.47105        30.70005  23659149.91405    736467.59905       694.68005        34.60005
C41  23814409.13105    -66554.06805      2828.76405        32.90005  23814430.11605     56494.06605      2112.57405        33.00005
E25  26306603.32025     40577.13925      1527.21325        29.90025  26306606.91804     21532.61404      1138.76504        26.50004
R17  22303339.12324   6561408.16724      3316.39424        28.50024
R15  21761329.34824  14434922.60024      -826.80124        27.30024
R07  23503244.34524  55641353.49824     -3834.21024        25.90024
E16  24753655.304 4     85707.139 4     -1055.083 4        25.300 4                                                                
R16  23533642.70124   -110749.38624      2715.98824        28.80024
R14  22863109.50223  -5718591.45723     -3784.41823        21.00023
> 2026 04 21 13 34 42.9999807  0 29                      
G10  22157370.47507     82055.01107     -2238.33407        46.10007  22157377.67006    128553.77706     -1671.35706        36.10006
G32  22912289.55506    -42959.10906      1942.95506        41.20006  22912280.56114     34006.18714      1450.72014        24.30014
G08  20451111.29306     57328.46506     -1414.60506        40.80006  20451118.78806    109446.10906     -1056.36606        38.10006
G23  24646205.19006    121323.86506     -3548.21406        40.20006  24646215.68314    856510.75614     -2645.88114        25.60014
G02  20678326.39506     -5283.33806       683.25506        38.20006                                                                
G14  23667490.74024    -49114.14424      1867.40924        27.50024  23667480.84713     30936.26413      1395.42913        21.20013
G01  22097644.92224    176420.79524      2604.12724        24.00024                                                                
G22  24900181.86623     95656.00323      2411.83623        22.50023                                                                
G27  22234329.29707    111379.18507     -3218.55607        41.90007  22234331.69506    151145.13906     -2403.36306        35.60006
C33  22901910.44007     14460.66207        17.87107        45.10007  22901942.51806     63781.49506        13.36906        37.40006
E33  24294445.80806    131635.92506     -1602.56406        41.10006  24294459.89805    123699.11605     -1196.64205        33.20005
R24  19471580.80806   3386265.98906       634.36606        40.70006
C28  21891787.33406    123673.03706     -1332.80406        40.40006  21891787.93324     85328.58424     -1001.92624        27.90024
R08  20509883.20606   5126291.20006      -699.63806        39.60006
C42  25860430.00006     90878.37306     -2825.54406        38.10006  25860438.39424    127486.46424     -2104.56024        25.30024
R23  22075668.63606   3212779.40106     -3098.58006        37.50006
C27  21684963.81506    -26264.12506      1106.90206        36.20006  21684974.00806     41127.82006       826.75906        37.50006
R01  20853961.90505   2499312.68905      3328.08905        35.10005
E29  26361334.93005     37439.16205      1576.08105        34.20005  26361340.02705    380159.20205      1177.10605        29.90005
E07  27335549.79605     43497.68305      -950.66005        33.80005  27335579.77505     84536.42805      -709.78205        32.70005
E12  23658984.72905     56817.28705       926.25505        30.90005  23658978.43305    735774.05105       692.39105        34.80005
C41  23813888.69125    -69381.38325      2825.68525        32.60025  23813897.08505     54382.77005      2110.06905        33.00005
E25  26306310.42305     39053.27705      1521.58405        29.80005  26306318.51804     20394.75604      1136.53704        26.70004
R17  22302728.44524   6558084.05224      3327.87924        28.30024
R15  21761456.76024  14435740.85724      -814.72324        27.10024
R07  23503890.39824  55645192.34124     -3839.16324        25.90024
E16  24753855.26514     86760.58214     -1060.14714        25.30014                                                                
R16  23533098.57824   -113464.90124      2712.57324        28.00024
R14  22863848.79023  -5714803.41423     -3786.45823        21.20023
> 2026 04 21 13 34 43.9999786  0 29                      
G10  22157789.58407     84294.24907     -2240.55207        46.50007  22157797.37906    130225.92206     -1673.14906        36.20006
G27  22234937.27607    114598.76707     -3220.92707        41.80007  22234937.87605    153549.30205     -2405.15405        35.40005
G32  22911915.11406    -44900.98006      1940.47806        41.10006  22911902.22314     32555.47214      1448.84614        24.20014
G08  20451371.81306     58744.05706     -1416.99706        40.70006  20451380.80706    110503.14306     -1058.04206        38.30006
G23  24646877.32506    124872.87306     -3550.19106        40.10006  24646876.42524    859161.43124     -2648.87624        25.60024
G02  20678189.99006     -5965.37706       680.63206        38.20006                                                                
G14  23667132.78824    -50981.91424      1868.97424        27.40024  23667124.39413     29538.95913      1396.31013        21.10013
G01  22097133.77624    173820.55324      2597.64324        25.50024                                                                
G22  24899743.56923     93246.81223      2411.19623        22.30023                                                                
C33  22901902.04607     14443.74707        15.53607        45.10007  22901933.22406     63768.79906        11.69606        37.40006
E33  24294747.09906    133239.19806     -1604.43006        41.20006  24294758.49205    124896.43005     -1198.22805        33.20005
R24  19471457.29406   3385632.26106       632.46806        40.80006
C28  21892031.96506    125006.68006     -1334.90906        40.40006  21892032.86404     86324.23804      -995.83904        28.20004
R08  20510010.91806   5126992.05006      -702.44006        39.80006
C42  25860958.53406     93704.57606     -2827.41106        38.10006  25860965.72914    129591.74414     -2106.75514        25.30014
R23  22076236.14306   3215878.59906     -3100.35406        37.40006
C27  21684746.16606    -27370.22306      1104.83506        36.20006  21684755.45906     40301.81406       825.03706        37.40006
R01  20853339.83605   2495985.78805      3325.44305        35.10005
E29  26361027.34305     35863.90905      1573.99205        34.50005  26361033.93905    378982.87805      1175.32905        30.10005
E07  27335729.07105     44449.13105      -952.74205        33.80005  27335753.65405     85246.96005      -711.55005        32.90005
E12  23658804.55325     55890.58625       925.97525        31.00025  23658795.56005    735082.32405       690.81705        35.00005
C41  23813337.07325    -72206.54425      2824.09025        32.30025  23813352.66205     52273.38505      2108.43305        33.00005
E25  26306017.82625     37532.18125      1519.71825        29.70025  26306024.12124     19258.70524      1133.65124        26.80024
R17  22302113.27124   6554766.82524      3313.03924        28.10024
R15  21761597.96224  14436560.71024      -821.65224        26.90024
R07  23504651.87124  55649039.70124     -3849.12824        25.80024
R16  23532494.79624   -116173.09224      2705.03324        27.30024
R14  22864506.53423  -5711012.15223     -3790.38023        21.40023
E16  24754056.726 4     87819.164 4     -1057.654 4        25.200 4                                                                
> 2026 04 21 13 34 44.9999765  0 29                      
G10  22158210.49307     86528.15207     -2231.24007        46.70007  22158214.99006    131894.14906     -1666.27106        36.30006
G27  22235538.06007    117812.81607     -3211.28907        41.80007  22235542.85705    155949.48605     -2398.20005        35.30005
G32  22911536.47606    -46848.18306      1949.87306        41.00006  22911525.38414     31101.94914      1453.92914        24.10014
G08  20451637.42906     60154.48006     -1407.84106        40.70006  20451641.62606    111556.34306     -1051.28406        38.30006
G23  24647546.76106    128416.18906     -3540.47806        40.10006  24647550.05924    861808.79824     -2641.21824        25.50024
G02  20678043.99106     -6653.03806       690.47406        38.20006                                                                
G14  23666765.84224    -52854.55624      1873.08324        27.40024  23666764.04313     28141.20013      1401.49013        21.00013
G01  22096633.72224    171213.58724      2604.47124        25.50024                                                                
G22  24899252.20923     90829.78323      2421.45423        22.10023                                                                
C33  22901890.95407     14421.74707        24.54207        45.00007  22901921.53306     63752.43806        18.19306        37.40006
E33  24295038.49806    134837.01406     -1595.09106        41.40006  24295054.98605    126089.60905     -1191.11405        33.20005
R24  19471325.08506   3384993.25906       641.64106        40.90006
C28  21892281.99106    126334.92506     -1325.55006        40.40006  21892279.59324     87315.84524      -986.08424        28.50024
R08  20510133.83306   5127688.07706      -693.61706        39.90006
C42  25861478.07406     96525.39006     -2818.12606        38.20006  25861497.86024    131697.56924     -2100.10324        25.30024
R23  22076805.74806   3218972.36606     -3091.05806        37.30006
C27  21684527.61706    -28481.72506      1114.20606        36.20006  21684538.11006     39471.82206       831.98706        37.40006
R01  20852714.76905   2492653.79605      3334.54605        35.10005
E29  26360722.45405     34283.33105      1583.24405        34.80005  26360725.75205    377802.64005      1182.19705        30.40005
E07  27335897.85505     45395.31605      -943.55605        33.90005  27335927.23405     85953.58005      -704.66505        33.00005
C41  23812786.65425    -75036.06825      2833.21125        32.10025  23812806.44005     50159.94705      2115.47005        33.00005
E12  23658609.98805     54958.65205       934.55205        31.10005  23658610.28805    734386.55405       697.79305        35.20005
E25  26305720.43205     36006.00805      1531.71405        29.60005  26305728.22604     18117.81404      1142.31304        27.10004
R17  22301410.55824   6551444.19724      3326.08624        27.90024
R15  21761759.55024  14437379.98624      -815.74124        26.80024
E16  24754256.688 4     88870.783 4     -1048.640 4        25.300 4                                                                
R07  23505499.08424  55652878.60224     -3840.17924        25.70024
R16  23532051.70224   -118891.87524      2719.58524        26.70024
R14  22865194.55823  -5707227.95923     -3784.91523        21.80023
> 2026 04 21 13 34 45.9999745  0 29                      
G10  22158637.99707     88764.23207     -2237.17307        46.90007  22158644.89206    133563.90406     -1670.52206        36.40006
G27  22236154.13407    121028.91907     -3217.13807        41.70007  22236158.63105    158351.11105     -2402.34905        35.20005
G32  22911174.32706    -48793.12806      1943.82006        40.90006  22911160.83624     29651.69724      1449.11924        23.90024
G08  20451912.63806     61567.07406     -1413.68306        40.60006  20451916.53606    112611.26406     -1055.78406        38.40006
G23  24648222.79306    131961.40906     -3546.17906        40.10006  24648232.98624    864455.64924     -2642.59824        25.50024
G02  20677919.87706     -7338.56106       684.45506        38.40006                                                                
G14  23666415.08524    -54725.39624      1870.44224        27.40024  23666411.78713     26745.30713      1395.46313        20.90013
G22  24898828.60323     88413.15923      2415.92523        21.80023                                                                
G01  22096146.55924    168613.96524      2599.45624        25.50024                                                                
C33  22901892.75207     14402.15407        18.39107        44.90007  22901922.73206     63737.75906        13.83806        37.40006
E33  24295346.08507    136436.75307     -1600.70407        41.60007  24295335.59205    127284.20205     -1195.30405        33.20005
R24  19471215.96106   3384356.50806       635.62706        40.90006
C28  21892537.71406    127665.33006     -1331.48706        40.40006  21892538.91404     88309.64004      -995.89104        28.90004
R08  20510265.14206   5128386.77306      -700.03106        40.00006
C42  25862024.59606     99348.33406     -2824.01406        38.20006  25862037.48714    133805.86914     -2104.04014        25.20014
R23  22077387.94506   3222068.09406     -3096.71406        37.20006
C27  21684325.55706    -29591.12506      1108.35306        36.30006  21684331.85206     38643.35206       827.71006        37.30006
E29  26360420.86305     32704.90605      1577.35105        35.00005  26360430.75605    376623.91305      1177.97505        30.60005
R01  20852095.99705   2489324.03805      3328.64705        35.20005
E07  27336084.32605     46343.77705      -949.60105        33.90005  27336111.90605     86661.84305      -709.08605        33.00005
E12  23658446.00205     54028.90305       928.65805        31.20005  23658438.20705    733692.23205       693.60005        35.30005
C41  23812263.51625    -77864.02125      2828.17325        32.00025  23812273.70905     48048.19305      2110.91605        32.90005
E25  26305430.83215     34481.04615      1523.35915        29.50015  26305442.52424     16979.62424      1137.34324        27.10024
R15  21761906.44924  14438198.51324      -822.15324        26.70024
R17  22300781.29324   6548128.57424      3311.87624        27.60024
E16  24754456.949 4     89924.274 4     -1052.928 4        25.600 4                                                                
R07  23506224.28224  55656728.97524     -3849.36624        25.50024
R16  23531544.45424   -121609.47824      2720.76824        26.20024
R14  22865950.33523  -5703439.88823     -3791.26823        21.90023
> 2026 04 21 13 34 46.9999725  0 29                      
G10  22159050.81107     91001.96707     -2238.56707        47.10007  22159057.10706    135234.94406     -1671.68506        36.40006
G27  22236753.71907    124246.70507     -3218.63307        41.70007  22236756.11705    160753.92205     -2403.41005        35.00005
G32  22910790.59306    -50736.34706      1942.35906        40.80006  22910778.60114     28201.29514      1445.98114        23.80014
G08  20452169.86006     62981.55206     -1415.42406        40.50006  20452171.35906    113667.50406     -1056.90106        38.40006
G23  24648887.43306    135507.97706     -3547.24806        40.10006  24648891.03114    867103.91814     -2646.48314        25.70014
G02  20677779.27406     -8022.43506       683.05106        38.40006                                                                
G14  23666035.84724    -56592.15524      1863.97124        27.40024  23666041.54313     25351.96013      1393.07713        20.80013
G01  22095606.63324    166012.84024      2597.38024        25.70024                                                                
G22  24898369.02123     85998.31223      2411.71423        21.60023                                                                
C33  22901877.46307     14384.37407        16.87207        44.90007  22901905.94306     63724.45106        12.62306        37.50006
E33  24295639.58207    138037.96007     -1601.94407        41.80007  24295656.97005    128479.88605     -1196.23105        33.10005
R24  19471084.35206   3383721.51706       634.11206        41.00006
R08  20510386.85806   5129087.79206      -702.18206        40.20006
C28  21892777.24906    128997.35706     -1332.84106        40.40006  21892776.34914     89305.59414      -994.03614        28.90014
C42  25862547.13406    102172.81006     -2825.24606        38.20006  25862560.92524    135911.51324     -2105.32124        25.40024
R23  22077965.94506   3225165.35606     -3098.03506        37.20006
C27  21684099.81306    -30698.90506      1106.97106        36.40006  21684107.60806     37816.06406       826.69806        37.30006
E29  26360112.67705     31128.12205      1575.96705        35.30005  26360118.07305    375446.48905      1176.77505        30.90005
R01  20851453.54205   2485996.42805      3326.54305        35.20005
E07  27336258.80505     47294.10805      -951.26705        33.90005  27336277.09205     87371.39705      -710.20105        33.00005
E12  23658250.83705     53100.67605       927.46805        31.30005  23658248.13905    732999.08605       692.55905        35.40005
C41  23811709.20005    -80690.66405      2825.49505        31.80005  23811721.49105     45937.62505      2109.98005        32.90005
E25  26305131.93905     32958.21405      1518.77105        29.50005  26305135.23704     15842.67404      1136.33204        27.30004
R15  21762018.57124  14439019.31824      -821.69624        26.60024
E16  24754647.617 4     90980.783 4     -1057.020 4        25.800 4                                                                
R17  22300101.06424   6544817.67424      3310.04624        27.40024
R07  23506924.29824  55660582.48924     -3858.34224        25.40024
R16  23531118.14924   -124332.36124      2721.02824        25.80024
R14  22866630.26423  -5699650.29823     -3791.85723        22.10023
> 2026 04 21 13 34 47.9999705  0 29                      
G10  22159479.81407     93241.15207     -2239.91407        47.10007  22159488.50806    136907.07106     -1672.67406        36.50006
G27  22237366.19507    127465.75407     -3219.68707        41.70007  22237373.98905    163157.81705     -2404.44005        34.90005
G32  22910420.34906    -52678.00906      1940.88706        40.70006  22910412.25514     26750.83614      1451.98914        23.90014
G08  20452442.37206     64397.65206     -1416.91306        40.50006  20452445.37006    114724.99906     -1058.12506        38.40006
G02  20677647.06606     -8704.88906       681.74506        38.40006                                                                
G14  23665691.08624    -58460.79924      1869.84124        27.40024  23665686.28913     23952.94813      1399.84613        20.60013
G01  22095133.26024    163413.76924      2600.05124        25.90024                                                                
G22  24897919.93223     83585.82023      2411.31923        21.40023                                                                
G23  24649567.36306    139055.66206     -3548.25006        40.10006  24649571.26004    869753.32704     -2649.98504        26.50004
C33  22901875.06507     14368.28307        15.24707        44.80007  22901907.44206     63712.52406        11.23606        37.50006
E33  24295956.76207    139640.33607     -1602.96307        41.80007  24295965.15605    129676.50105     -1197.08305        33.10005
R24  19470966.83306   3383088.13306       632.58206        41.10006
R08  20510521.16506   5129790.73406      -703.90406        40.40006
C28  21893035.67006    130330.73206     -1334.05106        40.40006  21893035.37004     90301.04204      -993.19704        28.90004
C42  25863091.85706    104998.65506     -2826.53606        38.20006  25863105.04814    138022.62814     -2106.85514        25.50014
R23  22078537.35006   3228263.98106     -3099.31306        37.10006
C27  21683894.75506    -31805.27406      1105.66606        36.40006  21683901.65006     36989.89506       825.61206        37.30006
E29  26359814.98306     29552.74206      1574.68106        35.60006  26359822.17805    374270.11105      1175.85605        31.10005
R01  20850838.06805   2482670.49205      3325.10605        35.20005
E07  27336444.37605     48245.72905      -952.26905        34.10005  27336464.76205     88082.08105      -711.25005        33.00005
E12  23658082.35305     52173.76905       926.25005        31.30005  23658076.35705    732306.85505       691.77605        35.40005
C41  23811182.16525    -83515.08625      2824.81625        31.70025  23811188.16005     43827.99905      2109.15805        32.80005
E25  26304849.23524     31437.34324      1519.39224        29.40024  26304851.33304     14706.68004      1135.51804        27.30004
R15  21762204.44224  14439840.18024      -819.89224        26.60024
E16  24754858.671 4     92039.066 4     -1059.673 4        26.000 4                                                                
R17  22299480.79424   6541505.73724      3307.46124        27.10024
R07  23507649.49624  55664436.91624     -3854.39124        25.20024
R16  23530613.59824   -127055.24424      2721.88924        25.40024
R14  22867303.59823  -5695857.04623     -3794.34123        22.20023
> 2026 04 21 13 34 48.9999686  0 29                      
G10  22159922.30807     95483.69107     -2244.22107        47.30007  22159931.90106    138581.70206     -1675.88606        36.60006
G27  22237996.35807    130688.15507     -3224.08407        41.60007  22238003.55305    165564.17205     -2407.59105        34.80005
G32  22910070.19106    -54616.21106      1936.47606        40.70006  22910056.40114     25301.10714      1450.86614        23.90014
G08  20452723.87706     65817.23906     -1421.33306        40.40006  20452732.27106    115785.06706     -1061.35706        38.50006
G02  20677540.34006     -9383.95206       677.36906        38.40006                                                                
G14  23665361.91424    -60326.17024      1865.23824        27.40024  23665347.52413     22560.34013      1391.41013        20.60013
G01  22094665.88424    160816.78924      2598.68824        25.90024                                                                
G22  24897489.72923     81180.05523      2406.40623        21.20023                                                                
G23  24650258.98406    142606.53506     -3552.47406        40.00006  24650264.68014    872403.72014     -2649.89014        26.50014
C33  22901891.55307     14355.72607        10.79007        44.80007  22901922.13206     63703.08006         8.20306        37.70006
E33  24296273.04307    141245.82507     -1607.04907        41.90007  24296289.53205    130875.43205     -1200.09105        33.10005
R24  19470863.10506   3382458.09206       628.37106        41.20006
R08  20510669.56206   5130497.47106      -708.63506        40.50006
C28  21893305.48306    131667.44306     -1338.38106        40.30006  21893305.78304     91299.15104     -1000.44004        28.90004
C42  25863650.97006    107827.75306     -2830.73006        38.20006  25863656.06614    140133.72714     -2109.09414        25.60014
R23  22079127.94106   3231365.83906     -3103.48006        37.00006
C27  21683695.99306    -32908.49206      1101.64506        36.40006  21683708.58406     36166.07806       822.64206        37.30006
E29  26359532.27806     27980.89506      1570.08306        35.80006  26359539.47305    373096.28805      1172.54905        31.30005
R01  20850237.28405   2479348.04905      3320.70305        35.20005
E07  27336639.54105     49200.87805      -956.91505        34.10005  27336662.62505     88795.29305      -714.47805        33.00005
C41  23810659.02705    -86337.15105      2818.89305        31.60005  23810668.92005     41721.00005      2105.69105        32.70005
E12  23657918.96625     51249.87125       922.39425        31.30025  23657918.06705    731617.05505       688.58505        35.40005
E25  26304563.83204     29919.37004      1518.52704        29.30004  26304581.52004     13573.28904      1132.09204        27.40004
R15  21762364.23224  14440667.59324      -833.19024        26.50024
E16  24755077.519 4     93099.222 4     -1061.093 4        26.100 4                                                                
R17  22298932.77324   6538196.02824      3310.10224        26.90024
R07  23508380.39024  55668291.41724     -3857.54624        24.90024
R16  23530163.61024   -129778.96924      2722.65124        25.10024
R14  22868085.75723  -5692059.70823     -3797.88823        22.20023
> 2026 04 21 13 34 49.9999665  0 29                      
G10  22160323.13007     97716.72707     -2228.28907        47.40007  22160331.22506    140249.24006     -1663.99606        36.60006
G27  22238586.05007    133900.96307     -3208.01807        41.50007  22238589.34805    167963.32705     -2395.56005        34.70005
G32  22909675.96406    -56563.89306      1952.42706        40.60006  22909667.27014     23855.71514      1456.22814        23.90014
G08  20452963.11106     67227.49006     -1405.58606        40.40006  20452975.40306    116838.14806     -1049.58906        38.60006
G02  20677383.54806    -10072.75506       693.67506        38.40006                                                                
G14  23664969.48524    -62199.19424      1874.10524        27.40024  23664969.78513     21166.06513      1391.61113        21.00013
G01  22094136.75024    158213.17324      2609.69124        25.90024                                                                
G22  24897016.65723     78771.30923      2417.24223        21.00023                                                                
G23  24650906.23606    146147.49106     -3536.00506        40.00006  24650908.63414    875049.14614     -2637.44814        26.50014
C33  22901862.77307     14333.82807        26.56807        44.70007  22901893.05206     63686.77006        19.74206        37.70006
E33  24296551.55007    142841.60107     -1590.92207        42.00007  24296567.73905    132067.08605     -1188.01805        33.00005
R24  19470714.70806   3381818.56306       644.27406        41.20006
R08  20510776.88806   5131195.19806      -693.22406        40.50006
C28  21893531.22706    132994.59606     -1322.37806        40.30006  21893534.52404     92290.22804      -987.56504        28.90004
C42  25864158.21906    110647.21906     -2814.65806        38.10006  25864167.81214    142239.59514     -2098.75714        25.60014
C27  21683472.04806    -34021.14806      1117.37606        36.50006  21683471.44806     35335.15206       834.48206        37.30006
R23  22079699.94506   3234457.81906     -3087.04806        36.90006
E29  26359206.40406     26399.44706      1586.25206        36.10006  26359212.40005    371915.35905      1184.48305        31.40005
R01  20849588.83305   2476016.19505      3336.56705        35.20005
E07  27336801.72905     50146.53205      -940.90905        34.10005  27336816.11905     89501.50405      -702.71105        33.00005
C41  23810088.82105    -89168.39005      2836.33205        31.60005  23810102.31205     39606.72005      2117.92505        32.60005
E12  23657713.90805     50316.41605       938.23605        31.40005  23657715.10806    730919.99406       700.69306        35.50006
E25  26304248.75004     28392.71604      1528.99804        29.30004  26304265.23924     12433.26724      1140.34024        27.40024
R15  21762512.02924  14441485.42324      -816.04024        26.60024
E16  24755254.097 4     94150.101 4     -1049.243 4        26.200 4                                                                
R17  22298302.30924   6534869.99624      3330.45224        26.60024
R07  23509060.01924  55672128.10424     -3829.03824        24.70024
R16  23529642.57024   -132507.07924      2734.80924        24.80024
R14  22868768.08423  -5688272.21923     -3784.57223        22.20023
> 2026 04 21 13 34 50.9999647  0 29                      
G10  22160775.81708     99947.50308     -2229.64908        47.50008  22160784.21106    141915.06606     -1664.97206        36.80006
G27  22239226.70707    137111.40307     -3209.26107        41.50007  22239228.50505    170360.70905     -2396.49905        34.60005
G32  22909329.10406    -58513.73906      1950.93106        40.50006  22909327.60514     22401.43514      1454.22614        23.80014
G08  20453265.60206     68635.58406     -1407.01806        40.30006  20453271.29806    117889.64506     -1050.70706        38.70006
G02  20677271.72606    -10763.60706       691.87706        38.40006                                                                
G14  23664642.11224    -64073.22424      1869.28724        27.40024  23664640.01413     19766.30413      1399.00713        21.00013
G01  22093687.36124    155609.84324      2600.44124        25.90024                                                                
G22  24896599.64623     76364.07023      2405.99023        20.90023                                                                
G23  24651607.15006    149685.87606     -3537.10506        40.00006  24651610.74804    877691.24004     -2642.43204        26.70004
C33  22901887.35607     14309.93607        24.89007        44.70007  22901916.13606     63668.91306        18.63006        37.80006
E33  24296884.32007    144434.90007     -1592.06407        42.10007  24296898.41005    133256.89405     -1188.88805        32.90005
R24  19470626.26906   3381176.72506       642.99406        41.20006
R08  20510927.68306   5131891.14806      -695.06406        40.60006
C28  21893817.22906    134319.33106     -1323.52706        40.20006  21893813.63104     93279.51804      -988.39604        28.80004
C42  25864718.23106    113464.43506     -2816.09406        38.10006  25864734.42024    144342.51424     -2103.44924        25.60024
C27  21683277.18206    -35136.27306      1116.36206        36.50006  21683287.07606     34502.47506       833.55406        37.30006
R23  22080301.92806   3237547.39106     -3088.37406        36.90006
E29  26358929.09606     24815.68606      1584.92106        36.30006  26358940.18805    370732.63805      1183.61905        31.50005
R01  20848993.44505   2472682.26805      3334.96905        35.20005
E07  27337004.68805     51090.02305      -942.41005        34.10005  27337024.77405     90206.01605      -703.66505        33.00005
C41  23809585.77005    -92002.05505      2834.88205        31.70005  23809593.56405     37490.80705      2116.73305        32.70005
E12  23657568.20905     49380.66805       936.89505        31.50005  23657564.61206    730221.12206       699.77806        35.60006
E25  26303986.43204     26862.72704      1523.15904        29.20004  26303998.72404     11290.58804      1143.51004        27.40004
R15  21762677.21524  14442302.03524      -814.75424        26.60024
E16  24755469.948 4     95199.685 4     -1052.439 4        26.500 4                                                                
R17  22297741.09824   6531555.87224      3318.42424        26.40024
R07  23509830.18624  55675962.09624     -3831.90024        24.50024
R16  23529085.25624   -135231.69324      2726.87024        24.50024
R14  22869525.66023  -5684488.06923     -3787.23723        22.20023
> 2026 04 21 13 34 51.9999628  0 29                      
